CEP,Position,Title,Link,Place ID,Address,City,State,Phone,Rating,Reviews,Latitude,Longitude,UF,Location
40110015,1,Bar e Restaurante Florbela Espanka,,ChIJMTQCEYYEFgcRJgExEbDxfYs,"Av. Treze de Maio, 5 - Canela, Salvador - BA, 40110-035",Salvador,BA,,5,3,-12.99104,-38.5226083,,
40110015,2,Bar e restaurante do Moqueca,,ChIJxaybvvoFFgcRuKhH2oaDPpk,"R. Luana Beatriz Calaça, 35 - Canela, Salvador - BA, 40110-080",Salvador,BA,,5,2,-12.990836499999999,-38.522543899999995,,
40110015,3,Restaurante Canela com Pimenta,,ChIJDf1U34UEFgcRpUi7-hPw0Hw,"R. Mal. Floriano, 50 - Canela, Salvador - BA, 40110-010",Salvador,BA,+55 71 3034-3598,4,290,-12.9918021,-38.5217125,,
40110015,4,Restaurante Caza - Restaurante no Corredor da Vitória,http://www.restaurantecaza.com.br/,ChIJ4UhCDmIFFgcRinKIYl3_8KY,"Av. Sete de Setembro, 1839 - loja 104 - Vitória, Salvador - BA, 40080-002",Salvador,BA,+55 71 3013-8539,4.8,40,-12.989966299999999,-38.5237062,,
40110015,5,O Patio Bar e Restaurante,,ChIJUzaMQYcEFgcRCzB4r1w9jKc,"Av. Sete de Setembro, 1809 - Vitória, Salvador - BA, 40080-001",Salvador,BA,,5,7,-12.9896798,-38.5236385,,
40110015,6,Marina Restaurante,,ChIJ85ewGu0EFgcRVuOKzMu2cXk,"Av. Sete de Setembro, 2068 - Vitória, Salvador - BA, 40080-004",Salvador,BA,+55 71 99112-6478,4.2,97,-12.9912726,-38.5255904,,
40110015,7,POINT DO ALÍRIO,,ChIJF9QQXsMFFgcRVswSeGGsQjU,"Av. Araújo Pinho, 84 - Canela, Salvador - BA, 40110-150",Salvador,BA,+55 71 99124-9414,,,-12.990836,-38.5209131,,
40110015,8,Mahi Mahi Bar e Restaurante,,ChIJ85ewGu0EFgcRxhisH4BzHwc,"Av. Sete de Setembro, 2068 - Vitória, Salvador - BA, 40301-110",Salvador,BA,+55 71 99121-8413,4.2,1372,-12.9911389,-38.525695299999995,,
40110015,9,Bar e Restaurante Butban,,ChIJ_YgP5Y4EFgcRfTsnohTmL3Y,"R. Forte de São Pedro, 35 - Garcia, Salvador - BA, 40080-016",Salvador,BA,+55 71 98543-6918,4.3,6,-12.987860099999999,-38.519936799999996,,
40110015,10,Gulash Restaurante,,ChIJF9_E8oUEFgcRDpp9xyRblKE,"R. João das Botas, 7 - Canela, Salvador - BA, 40110-160",Salvador,BA,+55 71 3245-6644,3.9,405,-12.9910832,-38.520593,,
40110015,11,Bar e Restaurante Cowboy,,ChIJtUtYGHEFFgcR38Z-7PvodEw,"Av. Leovigildo Filgueiras, 43 - Garcia, Salvador - BA, 40100-000",Salvador,BA,+55 71 99301-9316,4.7,7,-12.9915021,-38.5182625,,
40110015,12,Gugs Restaurante,,ChIJu1wMbY8EFgcRPOsy6NyNhiE,"Av. Leovigildo Filgueiras, 1 - Canela, Salvador - BA, 40100-000",Salvador,BA,+55 71 3328-6578,4.3,318,-12.989954599999999,-38.5199074,,
40110015,13,Restaurante Da Roça,,ChIJeW2Un5oEFgcReMFwa1EmUpY,"R. Pacífico Pereira, 25 - Garcia, Salvador - BA, 40100-170",Salvador,BA,+55 71 98818-1868,4.7,80,-12.9916393,-38.5152018,,
40110015,14,Saúde Brasil,https://www.instagram.com/restaurantesaudebrasil/,ChIJ9wIs2YMEFgcRavAWpZ0iL5Q,"R. Humberto de Campos, 6 - Graça, Salvador - BA, 40150-130",Salvador,BA,+55 71 3247-7237,4.6,337,-12.996491299999999,-38.5212159,,
40110015,15,Ré Restaurante Dona Suzana,https://www.instagram.com/donasuzanarerestaurante/,ChIJERn4c4wEFgcR3_wNilFcKIg,"R. da Conceição da Praia, 1294-1490 - Comercio, Salvador - BA, 40015-160",Salvador,BA,+55 71 3328-2056,4.7,701,-12.9842213,-38.5217083,,
40110015,16,Restaurante Tempero do Canela,,ChIJ5ydUNYEEFgcR3Fv9GxN8dM0,"R. Dr. Augusto Viana, 39 - Canela, Salvador - BA, 40110-060",Salvador,BA,+55 71 3561-6409,2,4,-12.9923544,-38.520620799999996,,
40110015,17,Cantinho da Graça Restaurante e Pizzaria,,ChIJVR15V4IEFgcRHN2b7ZlTyHc,"R. Barão de Loreto, n 10 - Graça, Salvador - BA, 40150-270",Salvador,BA,+55 71 3235-4156,4.3,125,-12.9983817,-38.5193175,,
40110015,18,Restaurante Egeu,,ChIJJWYg6n8EFgcR4t2HcWIchlw,"Av. Sete de Setembro, 2830 - Barra, Salvador - BA, 40130-001",Salvador,BA,+55 71 99329-3220,4.5,1386,-12.997750199999999,-38.5279713,,
40110015,19,Língua de Siri Restaurante,https://www.instagram.com/linguadesiri/,ChIJa2cGyW8FFgcRMc_54GcEtOo,"Rua Desembargador Castelo Branco, Largo Dois de Julho, 5 - solar do Unhao, Salvador - BA, 40060-060",Salvador,BA,+55 71 99173-5431,4.6,112,-12.983832399999999,-38.520862199999996,,
40110015,20,Canela e Cia,https://bit.ly/wpp-canelaecia,ChIJa4PatYYEFgcR0hQ_otMPh34,"Av. Araújo Pinho, 555 - Canela, Salvador - BA, 40110-150",Salvador,BA,+55 71 3337-3003,4.6,447,-12.994729399999999,-38.5227006,,
40110015,1,Restaurante Tempero do Manuel,,ChIJe6e5cY0EFgcRePDT0f_TXX4,"R. Carlos Gomes, 783 - Centro, Salvador - BA, 40060-325",Salvador,BA,+55 71 3329-4268,4.8,12,-12.983601,-38.5173221,,
40110015,2,Restaurante Ponto 4,,ChIJ0TgEg40EFgcRVlCfzftP2Is,"R. do Rosário, 03 - Dois de Julho, Salvador - BA, 40060-255",Salvador,BA,+55 71 3328-4458,4.3,142,-12.984349,-38.5169868,,
40110015,3,Restaurante Lar em Casa,https://www.lojalocal.com/amstel/32183250000109,ChIJtzhbb2IFFgcRtpB285EulMo,"Ladeira da Fonte, 44 - Campo Grande, Salvador - BA, 40080-020",Salvador,BA,+55 71 99153-9517,4.7,9,-12.9880743,-38.5185244,,
40110015,4,Novo Estrela - Bar e Restaurante,https://instagram.com/novoestrela?igshid=3qticfumil6e,ChIJ8QHtf3AFFgcR_3TWje8v9bw,"R. Politeama de Baixo, 313 - Politeama, Salvador - BA, 40080-166",Salvador,BA,+55 71 3329-5050,4.4,126,-12.987433699999999,-38.517370899999996,,
40110015,5,Restaurante Casa Amarela,,ChIJ43ltyAcFFgcRlQbn08CQ0Rw,"Av. Leovigildo Filgueiras, 21 - Garcia, Salvador - BA, 40100-000",Salvador,BA,+55 71 4141-9904,4.5,132,-12.990447099999999,-38.5189246,,
40110015,6,Restaurante Mistura Contorno,https://restaurantemistura.com.br/,ChIJ_-a934wEFgcRmvgEJjeCHes,"Ladeira do Gabriel, 334 - Dois de Julho, Salvador - BA, 40060-110",Salvador,BA,+55 71 2132-8277,4.7,1165,-12.9819435,-38.519438699999995,,
40110015,7,Bar Quintal Raso da Catarina,https://quintaldoraso.negocio.site/?utm_source=gmb&utm_medium=referral,ChIJu-ZKt44EFgcRN9Q0oEYYt3E,"Av. Sete de Setembro, 1370 - Campo Grande, Salvador - BA, 40080-001",Salvador,BA,+55 71 98846-6089,4.6,935,-12.986706499999999,-38.5212438,,
40110015,8,Point da Vila - Bar e Restaurante,https://www.instagram.com/accounts/edit/,ChIJvw9XSOwDFgcRkIUi5EnGlh4,"Ao lado da igreja da Vitória - Vila Brandão, Largo da Vitória, 67, Salvador - BA, 40130-125",Salvador,BA,+55 71 99999-9933,4.7,50,-12.996825999999999,-38.528563,,
40110015,9,Bar por do sol da gamboa,https://instagram.com/barpordosoldagamboa?utm_medium=copy_link,ChIJx6uWh4cFFgcRshVBlE51TlY,"R. Barbosa Leal - Campo Grande, Salvador - BA, 40301-110",Salvador,BA,+55 71 99727-2555,4.6,11,-12.986711399999999,-38.5236655,,
40110015,10,Bar e Restaurante Caxixi,,ChIJ85WGrZIEFgcRV0um4s5bMbA,"R. do Cabeça, 123 - Dois de Julho, Salvador - BA, 40060-230",Salvador,BA,+55 71 3321-2192,4.5,1468,-12.9816694,-38.5159015,,
40110015,11,Restaurante São Vincente,https://www.lojalocal.com/amstel/35872070000114,ChIJu7zNrfIEFgcR5R8DPYqj0uE,"Praça Gen. Inocêncio Galvão - Dois de Julho, Salvador - BA, 40060-055",Salvador,BA,+55 71 3015-6770,4.5,118,-12.9813063,-38.516808999999995,,
40110015,12,Restaurante e Lanchonete Flor do Largo,,ChIJPQ4AV40EFgcRvYrDEq2S-2A,"Largo Dois de Julho, 48 - Dois de Julho, Salvador - BA, 40060-180",Salvador,BA,+55 71 3321-1338,4.9,7,-12.981879699999999,-38.5162386,,
40110015,13,Restaurante ping pong,,ChIJiQNVf5IEFgcR3alAKjxbKhA,"R. do Rosário - Centro, Salvador - BA, 40060-255",Salvador,BA,+55 71 98230-2835,4.8,4,-12.984373,-38.5169457,,
40110015,14,BAR E RESTAURANTE POINT DA CODORNA,http://bar-e-restaurante-point-da-codorna.negocio.site/,ChIJ5_bTp_IEFgcRvDbynKCwATA,"R. Areal de Cima, 227 - Dois de Julho, Salvador - BA, 40060-220",Salvador,BA,+55 71 98175-6697,4.4,85,-12.9812102,-38.5166803,,
40110015,15,Restaurante Pôr do Sol,,ChIJs5q7h5IFFgcRLbZ-kx1y7P0,"R. da Conceição da Praia, 1067 - Comercio, Salvador - BA, 40015-250",Salvador,BA,,,,-12.9837457,-38.5205659,,
40110015,16,Restaurante Lafayette,https://m.facebook.com/restaurantelafayette/?locale2=pt_BR,ChIJY1H_2fIEFgcR7yaXRYUFJd4,"Av. Lafayete Coutinho, 1010 - Comercio, Salvador - BA, 40060-070",Salvador,BA,+55 71 3321-4637,4.6,2344,-12.9796982,-38.518701,,
40110015,17,Tudo Azul Restaurante Suíço-Brasileiro,,ChIJ2UBIAYQDFgcRADS7dugmX-w,"Porto da Barra, Av. Sete de Setembro, 3701 - Barra, Salvador - BA, 40140-110",Salvador,BA,+55 71 99220-7652,4.4,896,-13.0035762,-38.532621899999995,,
40110015,18,Restaurante Casa Lisboa,https://www.restaurantecasalisboa.com.br/,ChIJJwsbu3wDFgcR--b12mWKQak,"R. Manuel Dias de Morais, 35 - Jardim Apipema, Salvador - BA, 40155-260",Salvador,BA,+55 71 98888-3841,4.6,975,-13.004584,-38.5173947,,
40110015,19,Tampinha,https://tampinha-bar.negocio.site/?utm_source=gmb&utm_medium=referral,ChIJE_-XPpwEFgcRJK7Oax-Rbog,"R. Caetano Moura, 34 - Federação, Salvador - BA, 40210-340",Salvador,BA,+55 71 3235-0196,4.1,1251,-12.9981899,-38.512233699999996,,
40110015,20,Restaurante Veleiro,,ChIJ85ewGu0EFgcRVaCjsoKUSx4,"Av. Sete de Setembro, 3252 - Barra, Salvador - BA, 40130-001",Salvador,BA,+55 71 2105-9131,4.7,587,-13.0003242,-38.5306624,,
40110015,1,Restaurante Sabor do sertão,,ChIJCe4SbZIEFgcRsjpvN3ozbPQ,"R. do Salete, 112 - Barris, Salvador - BA, 40070-200",Salvador,BA,,4.3,3,-12.9854749,-38.5158512,,
40110015,2,Restaurante Mustaffá,https://instagram.com/mustaffarestaurante?igshid=MjkzY2Y1YTY=,ChIJXbruTmYDFgcRtjHgyP9zlvU,"R. Humberto de Campos, 49 - Graça, Salvador - BA, 40150-130",Salvador,BA,+55 71 3346-7888,4.4,166,-12.9965634,-38.521392,,
40110015,3,O Líder Bar Restaurante e Churrascaria,,ChIJKYdXVe0EFgcRRutVVQNHkqs,"N°, Largo Dois de Julho, 32 - Dois de Julho, Salvador - BA, 40060-000",Salvador,BA,+55 71 3321-8955,4.4,1687,-12.982111699999999,-38.516863099999995,,
40110015,4,Mignon Restaurante e Buffet,http://www.grupomignon.com.br/,ChIJlaToHo9vUAQRXUaZ61Iy7q4,"R. Eng. Alexandre Maia, 3 - Graça, Salvador - BA, 40150-190",Salvador,BA,+55 71 3247-5774,4.6,493,-12.9974802,-38.5218653,,
40110015,5,Bar e Restaurante Pertinho de Casa,,ChIJIztnAZcFFgcRyEZoD6HOwx0,"R. Manoel Barreto, 101 - Graça, Salvador - BA, 40150-360",Salvador,BA,,,,-12.999288,-38.521334599999996,,
40110015,6,Master Pães Delicatessen,,ChIJ2VfuXo8EFgcRLMbsTj8b4ng,"Av. Araújo Pinho, 14 - Canela, Salvador - BA, 40110-150",Salvador,BA,+55 71 3336-5508,4.3,272,-12.990431099999999,-38.5207094,,
40110015,7,Restaurante Point da Avenida,,ChIJYeUyLIwEFgcRt8S3s3dtLjg,"Av. Sete de Setembro, 186 - Dois de Julho, Salvador - BA, 40060-001",Salvador,BA,+55 71 3019-2013,3.8,19,-12.979162299999999,-38.514614699999996,,
40110015,8,Sancho Bistrô Restaurante,,ChIJfy8TNoAEFgcRhm1AiVIYTFA,"R. Oito de Dezembro, 27 - Graça, Salvador - BA, 40150-000",Salvador,BA,+55 71 3336-3247,4.1,28,-12.998383899999999,-38.524788699999995,,
40110015,9,Restaurante Tempero Verde,,ChIJIyA_rpMEFgcRGlco2scD4aw,"R. Gen. Labatut, 48 - Barris, Salvador - BA, 40070-100",Salvador,BA,,4.2,29,-12.9852887,-38.5135571,,
40110015,10,Restaurante Pôr do Sol,,ChIJvZjH4TcFFgcRqnPHfFP0TSA,"Solar Do Unhão Prox ao Museu do MAM - R. Des. Castelo Branco de Baixo, 3A - Dois de Julho, Salvador - BA, 40060-060",Salvador,BA,+55 71 99645-7039,4.7,70,-12.9829902,-38.5203748,,
40110015,11,"O Lôro Bahia Marina: Barraca de Praia, Restaurante, Bar, Salvador BA",,ChIJGa4NS70FFgcRc2b3nPFvH64,"R. Sônia Leal Borges, 1010 - Comercio, Salvador - BA, 40060-110",Salvador,BA,+55 71 99661-2019,4.4,254,-12.980191999999999,-38.5200241,,
40110015,12,GALPAO BEER,,ChIJOQAB-VcFFgcRo-V8oUk85Ls,"R. do Salete, n07 - Barris, Salvador - BA, 40070-200",Salvador,BA,+55 71 98636-6870,4.6,275,-12.9851048,-38.5160285,,
40110015,13,Restaurante Xica da Silva,,ChIJ33QSmroFFgcRB_gHP_i7hyw,"R. Conde Filho, 138 - Graça, Salvador - BA, 40150-150",Salvador,BA,,4.3,6,-12.996860999999999,-38.5230508,,
40110015,14,Restaurante Fora do Comum,,ChIJ0fPGg40EFgcRTlmqCYzEQUo,"R. do Rosário, 07 - Barris, Salvador - BA, 40060-255",Salvador,BA,+55 71 3329-3079,4.2,145,-12.9843814,-38.5169037,,
40110015,15,Restaurante Sertanejo,https://www.telelistas.net/locais/ba/salvador/restaurantes+nordestinos/bu-18769315/restaurante+sertanejo+em+cidade+nova,ChIJp-J01psFFgcRMmy9eSQjL8o,"Restaurante Sertanejo - Av. Heitor Dias, 208 - Cidade Nova, Salvador - BA, 40313-042",Salvador,BA,+55 71 98106-2778,,,-12.982853599999999,-38.5157755,,
40110015,16,Restaurante galpão,,ChIJJbS_eFAFFgcRTC5F93uuPjs,"R. do Salete, 64 - Barris, Salvador - BA, 40070-200",Salvador,BA,+55 71 99145-6786,,,-12.9857804,-38.5153763,,
40110015,17,Grão de Bico - Restaurante natural,,ChIJITknlpIEFgcRFcQWchlGZvs,"Av. Sete de Setembro, 737 - Dois de Julho, Salvador - BA, 41515-272",Salvador,BA,+55 71 99649-4715,4.3,365,-12.9838212,-38.5162982,,
40110015,18,Restaurante Van Gogh,,ChIJbe77U4EDFgcRbcmD2hXt43U,"Av. Sete de Setembro, 3665 - Barra, Salvador - BA, 40140-110",Salvador,BA,+55 71 3267-2304,4.1,100,-13.0032517,-38.532541099999996,,
40110015,19,Restaurante E Pizzaria Cantinho Da Vanda,,ChIJJ64Xj4AEFgcRO2-psFAnsEM,"R. Eng. Souza Lima, 8 - Graça, Salvador - BA, 40150-460",Salvador,BA,,5,5,-12.9963863,-38.5262592,,
40110015,20,Dileto Lanchonete e Restaurante,,ChIJm_XcGu0EFgcRxGKN60gu-qg,"Av. Sete de Setembro, 379 - Nazaré, Salvador - BA, 40060-000",Salvador,BA,+55 71 98255-2767,4.2,46,-12.981070599999999,-38.514356,,
40110015,1,Larriquerrí,,ChIJh-qjAZsEFgcRXnVoTleaa7w,"Praça Alexandre Fernandes, 26 - Garcia, Salvador - BA, 40100-130",Salvador,BA,+55 71 3043-0934,4.7,845,-12.9944347,-38.513917,,
40110015,2,Baladna Restaurante Libanês,https://instagram.com/baladna.ssa?igshid=YmMyMTA2M2Y=,ChIJl4UUWaoFFgcRdzQioDMo064,"R. Gen. Labatut, 177 - Barris, Salvador - BA, 40070-100",Salvador,BA,+55 71 99390-0200,4.8,24,-12.9855513,-38.5136465,,
40110015,3,Bar e Restaurante D. Marcelo,,ChIJo4Vr4OoEFgcRpaMhli3eHwo,"R. José Duarte, 206 - Tororo, Salvador - BA, 40050-050",Salvador,BA,+55 71 98855-1774,4.3,24,-12.9819702,-38.5085264,,
40110015,4,Restaurante Chez Bernard,http://www.chezbernard.com.br/,ChIJKb6KQYwEFgcR4G7prySKpZM,"R. Gamboa de Cima, 11 - Dois de Julho, Salvador - BA, 40060-008",Salvador,BA,+55 71 3328-1566,4.6,432,-12.9845508,-38.520765999999995,,
40110015,5,Restaurante Gula Salgados,https://www.instagram.com/gulasalgados/,ChIJz9zT7Q0FFgcRBQC3fmHXaHg,"R. Direita da Piedade, 133 - Politeama, Salvador - BA, 40080-241",Salvador,BA,+55 71 99415-3702,,,-12.9850479,-38.5177919,,
40110015,6,Mix Restaurante & Lanchonete,,ChIJ395hpJIEFgcRvd1xZcg0T1Y,"Dois de Julho, Salvador - BA, 40020-550",Salvador,BA,,,,-12.982736,-38.5160315,,
40110015,7,Coffeetown Salvador (Vitória),http://www.instagram.com/coffeetownsalvador,ChIJNbQukogEFgcRrZlDiUEh40c,"Av. Sete de Setembro, 1755 - Vitória, Salvador - BA, 40080-002",Salvador,BA,+55 71 3565-1325,4.3,2055,-12.989287099999999,-38.5235395,,
40110015,8,Batatinha Bar e Restaurante,,ChIJ4Z0DV4wEFgcRRISsANXycl8,"Ladeira dos Aflitos, 68 - Campo Grande, Salvador - BA, 40060-360",Salvador,BA,,4.6,93,-12.983836799999999,-38.5196298,,
40110015,9,Vegalize,,ChIJU1nkn8kFFgcRzpZZ_UEwXjA,"R. Basílio da Gama, 65 - Canela, Salvador - BA, 40110-040",Salvador,BA,+55 71 99999-5063,,,-12.994975799999999,-38.5237328,,
40110015,10,Hong San Restaurante,,ChIJ9e4KsZIEFgcRxvPnu7NhcSI,"R. Carlos Gomes, 129 - Dois de Julho, Salvador - BA, 40060-330",Salvador,BA,+55 71 3035-0421,4.3,15,-12.9823051,-38.5156789,,
40110015,11,"Camarada Camarão Shopping Barra: Camarões, Peixes, Happy Hour, Restaurante, Salvador BA",http://www.ocamarada.com.br/,ChIJxW7JWJgDFgcREIQNwT_GWCA,"Av. Centenário, 2992 - Chame-Chame, Salvador - BA, 40149-900",Salvador,BA,+55 71 99730-9356,4.7,270,-13.0060428,-38.5238523,,
40110015,12,Andina Cozinha Latina,,ChIJ7TcSPORrPgcRAsXWqdpop9A,"R. Barão de Loreto, 26 - Graça, Salvador - BA, 40150-270",Salvador,BA,+55 75 98326-7555,4.9,169,-12.999273599999999,-38.5186293,,
40110015,13,Recôncavo Culinária,https://www.instagram.com/reconcavo.culinaria/,ChIJ41cJ-D4DFgcRAJtmPrkO6fk,"R. Prof. Fernando Luz, 63 - Chame-Chame, Salvador - BA, 40140-160",Salvador,BA,+55 71 3512-7326,4.9,221,-13.008747099999999,-38.5256146,,
40110015,14,Guapo Mexican Bar - Restaurante Mexicano,https://www.instagram.com/guapomexicanbar/,ChIJKRObm3gDFgcRIve3j3HDg14,"R. Maceió, 86 - Barra, Salvador - BA, 40140-370",Salvador,BA,+55 71 3561-4316,4.3,833,-13.0053875,-38.5265905,,
40110015,15,D`Melhor Restaurante e Pizzaria,,ChIJ8W3gX5wEFgcRpvOiUMaADdQ,"R. Caetano Moura, 6 - Federação, Salvador - BA, 40210-340",Salvador,BA,+55 71 98822-8409,,,-12.9978272,-38.5135402,,
40110015,16,Brito's Restaurante e Lanchonete,,ChIJcz_4PpwEFgcR_My62TohRTA,"R. Caetano Moura, 30 - Federação, Salvador - BA, 40210-341",Salvador,BA,+55 71 98101-2006,4.1,37,-12.998149,-38.512215,,
40110015,17,Shiro Restaurante Japonês,http://www.shirotogo.com.br/,ChIJ4TOnZoAEFgcRLEAUUUkAIxg,"R. Flórida, 41 - Graça, Salvador - BA, 40150-480",Salvador,BA,+55 71 3021-6999,4.4,609,-12.9971546,-38.5258295,,
40110015,18,Cuco Bistrô,http://cucobistro.com.br/,ChIJV41wnOgEFgcRs6E0pj4rRo8,"Largo do Cruzeiro de São Francisco, 6 - Pelourinho, Salvador - BA, 40020-280",Salvador,BA,+55 71 3321-8722,4.7,1820,-12.9737943,-38.5093868,,
40110015,19,Àmàlà Culinária Ancestral,,ChIJUbJgMQ4FFgcR7s2RLWFEevU,"R. Maciel de Baixo, 20 - Loja 20 - Pelourinho, Salvador - BA, 40026-240",Salvador,BA,+55 71 99171-3410,4.9,10,-12.973136499999999,-38.508575799999996,,
40110015,20,Na Oito,,ChIJ2zIk34EDFgcR5_TUwZ2T0LM,"R. Oito de Dezembro, 68 - Graça, Salvador - BA, 41280-300",Salvador,BA,+55 71 99211-4340,4.8,108,-13.002368899999999,-38.527110799999996,,
40110015,4,Tempero Da Bahia,,ChIJ8_JFB3gDFgcRfM2xR_RFoOc,"R. Afonso Celso, 563 - Barra, Salvador - BA, 40140-080",Salvador,BA,,4.3,31,-13.0081671,-38.5269759,,
40110015,5,Restaurante 36A,,ChIJkdn4O5wEFgcR2rrGQ3gRaVM,"R. Caetano Moura, 36 - Loja A - Federação, Salvador - BA, 41210-341",Salvador,BA,,4.6,61,-12.9983025,-38.5121979,,
40110015,6,YOKOYAMA Sushi Bar- Unidade Graça,https://instagram.com/yokoyamagraca?utm_medium=copy_link,ChIJfb7rQKwFFgcRcGR_Hfd0BLw,"R. Humberto de Campos, 8 - Graça, Salvador - BA, 40150-130",Salvador,BA,+55 71 3052-9547,4.7,609,-12.996558499999999,-38.5210253,,
40110015,7,Hajar Restaurante,,ChIJ8XTXeKgDFgcRKgdlpkX5wXE,"Av. Sete de Setembro, 2998 - Vitória, Salvador - BA, 40130-001",Salvador,BA,+55 71 98770-9264,3,2,-12.9988651,-38.5289084,,
40110015,8,Restaurante Grama ou Kilo,https://facebook.com/restaurantegramaoukilo/,ChIJxSk0SHkDFgcRGldGUDudUts,"R. Plínio Moscoso, 1 - Chame-Chame, Salvador - BA, 40155-812",Salvador,BA,,4.4,130,-13.0048975,-38.5231703,,
40110015,9,Bar e restaurante Q'Apettit,,ChIJ3eo8kbIFFgcRu8VKfkzERbU,"Alameda Ogunjá - Engenho Velho de Brotas, Salvador - BA, 40240-195",Salvador,BA,+55 71 98732-4836,5,1,-12.9855267,-38.4982818,,
40110015,10,Restaurante Bahia Natural,,ChIJG6t1spIEFgcRsX8KJXUDvgk,"Rua da Forca, 93 - Dois de Julho, Salvador - BA, 40060-002",Salvador,BA,,4.7,18,-12.983751499999999,-38.516324999999995,,
40110015,11,Sette Restaurante,https://www.instagram.com/setterestaurante/,ChIJq5o89PoDFgcRs8gSl6pgG34,"Av. Sete de Setembro, 3157 - Loja 3 - Barra, Salvador - BA, 40130-000",Salvador,BA,+55 71 99675-0077,4,147,-13.000068899999999,-38.5295845,,
40110015,12,Restaurante Piritiba,,ChIJN96heh4FFgcR8jdhNdBDkHY,"R. Carlos Gomes, 968 - Dois de Julho, Salvador - BA, 40060-325",Salvador,BA,+55 71 99297-5183,,,-12.9843184,-38.5190272,,
40110015,13,Restaurante Gaibin,,ChIJs8-INu0EFgcRVNb5pEIEStA,"R. do Cabeça, 34 - Dois de Julho, Salvador - BA, 40060-230",Salvador,BA,+55 71 3322-8589,4,5,-12.9818228,-38.5149104,,
40110015,14,RESTAURANTE RECANTO DA VALDA,,ChIJh6Vzf5kFFgcRxkKWEFIj0Bs,"Av. Sete de Setembro, 4347 - Nazaré, Salvador - BA, 41515-272",Salvador,BA,,5,1,-12.9815946,-38.5146033,,
40110015,15,S S Bar e Restaurante,,ChIJweKm4-wEFgcRtws7YQMwkq4,"R. Nova de São Bento, 40 - Centro, Salvador - BA, 40020-200",Salvador,BA,+55 71 3322-4340,4.2,25,-12.9801719,-38.5137979,,
40110015,16,Soho Restaurante,http://sohorestaurante.com.br/,ChIJV2gWWPIEFgcR4HJbnrhF_ds,"Av. Lafayete Coutinho, 1010, Salvador - BA, 40015-160",Salvador,BA,+55 71 3322-8150,4.5,2102,-12.979104399999999,-38.5184473,,
40110015,17,Restaurante Pizzaria,,ChIJEwfhmOsEFgcRmDQw7o9zdTw,"R. da Mangueira, 13 - Nazaré, Salvador - BA, 40040-400",Salvador,BA,,,,-12.9802196,-38.509852699999996,,
40110015,18,Restaurante Cebola Roxa,,ChIJSyeLAQYFFgcRKG0UegPSceQ,"Av. Vale do Tororó - Tororo, Salvador - BA, 40050-290",Salvador,BA,+55 71 98878-6118,,,-12.9863501,-38.5108955,,
40110015,19,Bar & Restaurante Tempero da Claudinha,,ChIJlWiFJsMFFgcR_80NfZD1GOc,"R. Djalma Dutra, 292 - Nazaré, Salvador - BA, 40276-030",Salvador,BA,+55 71 98111-8035,5,2,-12.9735319,-38.4997204,,
40110015,20,Bar e Restaurante Bom Gosto,,ChIJn6hXetAFFgcRXYnjpCJzeyA,"R. Caetano Moura, 181 - Federação, Salvador - BA, 40210-341",Salvador,BA,+55 71 98887-1659,5,5,-12.9985997,-38.5119713,,
40110015,1,MARABÔ GASTRO MUSIC,,ChIJp9AJKVIDFgcR_2mtnPBBwpQ,"Freeshop do Rio vermelho - R. João Gomes, 87 - 1° andar - Rio Vermelho, Salvador - BA, 41950-640",Salvador,BA,+55 71 99922-0125,4.4,418,-13.0116372,-38.4912494,,
40110015,2,Restaurante Am,,ChIJSXrkjjQFFgcRqCILbH2eajI,"R. Monte Belém de Baixo, 17 - Engenho Velho de Brotas, Salvador - BA, 40243-200",Salvador,BA,+55 71 98341-7554,5,1,-12.9884887,-38.504534,,
40110015,3,Bar e restaurante do França,http://www.confrariadofranca.com.br/,ChIJv0He51ADFgcRMuDdAlnM1V8,"Travessa Lydio de Mesquita, 43 - Rio Vermelho, Salvador - BA, 41950-420",Salvador,BA,+55 71 3565-3700,4.6,871,-13.0108555,-38.493548,,
40110015,4,Comida Caseira,,ChIJXcuDBgMFFgcR-IYcnnG9PJA,"R. Frei Vicente, 7 - Pelourinho, Salvador - BA, 40025-060",Salvador,BA,,,,-12.97306,-38.508595299999996,,
40110015,5,Boteco Agadda,,ChIJ-VuIs6gFFgcRHv-0BbO2hgU,"Ladeira do Carmo, 9 - Pelourinho, Salvador - BA, 40301-410",Salvador,BA,,5,3,-12.9701454,-38.5079498,,
40110015,6,Restaurante Fasano Salvador,http://www.fasano.com.br/,ChIJe9GZNKIFFgcRpZ4F1W3-wT8,"Praça Castro Alves, 5 - Centro Histórico, Salvador - BA, 40020-160",Salvador,BA,+55 71 2201-6300,4.6,107,-12.9769414,-38.5143427,,
40110015,7,Restaurante Casa dos Sabores,,ChIJKx7SjtsEFgcRKTOyQUt9rbU,"R. Bela Vista do Cabral, 187-207 - Nazaré, Salvador - BA, 40055-000",Salvador,BA,+55 71 3303-9637,4.5,22,-12.971862699999999,-38.500344399999996,,
40110015,8,La Taperia,,ChIJe6d6nVADFgcRIVgQNT482pI,"R. da Paciência, 251 - Rio Vermelho, Salvador - BA, 41950-010",Salvador,BA,+55 71 98716-1077,4.6,1468,-13.0108455,-38.4945434,,
40110015,9,Cozinha Natural Ramma,http://www.rammacozinhanatural.com.br/,ChIJt-L5MYIDFgcRhpvzM18kcvc,"R. Lord Cochrane, 76 - Barra, Salvador - BA, 40140-070",Salvador,BA,+55 71 3264-0044,4.6,431,-13.004681,-38.529281999999995,,
40110015,10,Restaurante Comércio,https://www.instagram.com/restaurantecomercio/?hl=pt-br,ChIJ_0DPJF0FFgcRNQNV39bcy3E,"R. Portugal, 114 - 04 - Comercio, Salvador - BA, 40015-001",Salvador,BA,+55 71 3242-2908,5,1,-12.971784999999999,-38.5124832,,
40110015,11,Mirante Tropical da Ladeira,https://instagram.com/mirante_tropical_da_ladeira?igshid=YmMyMTA2M2Y=,ChIJWX59CAQFFgcRQ3Jckx2cbbU,"R. Visc. de Mauá, 11e - Dois de Julho, Salvador - BA, 40060-120",Salvador,BA,+55 71 98624-6535,4.8,87,-12.9780559,-38.5163285,,
40110015,12,"Alfredo'Ro Restaurante Italiano: Massas Artesanais em Barra- Ondina, Salvador",https://www.alfredoro.com.br/,ChIJYUwYOmUDFgcRMVzYClCWTPM,"Rua Morro Escravo Miguel, Blvd. Atlantic Towers, 1545 - Barra, Salvador - BA, 40140-130",Salvador,BA,+55 71 98814-5660,4.6,1970,-13.008906999999999,-38.515664199999996,,
40110015,13,Restaurante La Lupa,https://www.dguests.com/lalupa,ChIJVfQ95scFFgcR-fc6ZH7ChAc,"R. Direita de Santo Antônio, 491 - Santo Antônio Além do Carmo, Salvador - BA, 40301-280",Salvador,BA,+55 71 99109-2233,4.5,64,-12.96407,-38.504411999999995,,
40110015,14,Restaurante Comida da Nonna,,ChIJ0XMPPtADFgcROeY6y2dxnP4,"Av. Anita Garibaldi, 1815 - Federação, Salvador - BA, 40170-130",Salvador,BA,+55 71 99293-0723,5,6,-13.0039875,-38.502319899999996,,
40110015,15,Rocha's Restaurante,,ChIJIw-vFtEFFgcR_KfDnbO-ZCY,"R. do Carro, 66 - Nazaré, Salvador - BA, 40040-240",Salvador,BA,,4.8,5,-12.977796699999999,-38.5078539,,
40110015,16,Restaurante valdelicias,,ChIJTVSsOb8FFgcRTyd362Cj6qo,"R. José Duarte - Tororo, Salvador - BA, 40050-050",Salvador,BA,+55 71 99951-4418,,,-12.9819178,-38.5085324,,
40110015,17,Restaurante Casa de Tereza,http://www.terezapaim.com.br/,ChIJqYtYX1IDFgcRvXjh6xkQOsg,"R. Odilon Santos, 45 - Rio Vermelho, Salvador - BA, 41940-350",Salvador,BA,+55 71 3329-3016,4.6,4472,-13.0138807,-38.487693799999995,,
40110015,18,Kantinho da Aroeira,,ChIJJ0YG6dgEFgcRIQ4WLsiPXis,"R. Dr. Rocha Leal, 28 - Barbalho, Salvador - BA, 40300-762",Salvador,BA,+55 71 3241-8783,4.6,113,-12.9674353,-38.499180599999995,,
40110015,19,RESTAURANTE CASARAO,https://restaurants.accor.com/pt-br/restaurant-5182_R001-restaurante-casarao-salvador.shtml,ChIJe1PjsVIDFgcRPykV6O_ftXg,"R. da Fonte do Boi, 215 - Rio Vermelho, Salvador - BA, 41940-360",Salvador,BA,+55 71 3172-9200,4,13,-13.015274199999999,-38.4851452,,
40110015,20,Restaurante da EVA,,ChIJ3QQWpBwFFgcRxbzdAX5gTW0,"R. do Bpo., 40 - Centro, Salvador - BA, 40020-286",Salvador,BA,,5,1,-12.9743734,-38.509482399999996,,
40110015,1,Restaurante Origem,https://www.grupoorigem.com.br/,ChIJs6QtNhIbFgcRjXPuuXdy1ss,"Alameda das Algarobas, 74 - Pituba, Salvador - BA, 41820-500",Salvador,BA,+55 71 99202-4587,4.8,669,-12.9888295,-38.455475199999995,,
40110015,2,Restaurante Bom Bokado,,ChIJebYpv7wQFgcRL5oFT2q4LLM,"Condomínio Vale dos Lagos - R. Jorn. Samuel Wainer Filho, 2 - Canabrava, Salvador - BA, 41260-075",Salvador,BA,+55 71 3019-6370,4.4,203,-12.931545,-38.4177675,,
40110015,3,Restaurante Cedro,https://www.instagram.com/cedrorestaurante/,ChIJLbkvFQ8bFgcRZdB8yKSyv3k,"R. Dr. José Peroba, 244 - Stiep, Salvador - BA, 41770-235",Salvador,BA,+55 71 3617-3384,3.8,87,-12.9849889,-38.4492591,,
40110015,4,Hot Dougie's Rendezvous,https://www.facebook.com/pages/Hot-Dougies-Rendezvous/773367626085917?fref=ts,ChIJC-U6AYQDFgcRuqokR529kI8,"Av. Sete de Setembro, 3651 - Barra, Salvador - BA, 40140-110",Salvador,BA,+55 71 99941-9413,4.5,90,-13.003061599999999,-38.5324956,,
40110015,5,Roberio Lanches e Restaurante,,ChIJw3p3v5EFFgcRMKSqgN7GwQk,"R. Rodrigues Alves, 9 - Comercio, Salvador - BA, 40015-310",Salvador,BA,+55 71 98879-1948,,,-12.971066599999999,-38.5103386,,
40110015,6,Restaurante,,ChIJ27912uUFFgcR64CfUi_qOB4,"2ª Travessa Barletta, 31 - Macaúbas, Salvador - BA, 40302-070",Salvador,BA,,,,-12.964709,-38.493821,,
40110015,7,Restaurante Cravo e Canela,,ChIJ99lYSTQFFgcRHZTzTN07V5Q,"R. Lima Teixeira, 8 - Cosme de Farias, Salvador - BA, 40253-030",Salvador,BA,+55 71 98775-6608,,,-12.9810693,-38.488298,,
40110035,14,Cervs Cocina Española,,ChIJU1dk5I4EFgcRRbTJF_gUTHY,"R. Forte de São Pedro, 64 - Campo Grande, Salvador - BA, 40080-016",Salvador,BA,+55 71 99991-7856,4.1,448,-12.98809,-38.5198671,,
40110040,13,New Temaki,http://www.newtemakisalvador.com.br/,ChIJ0V2DCoMEFgcRams9_LskQMA,"R. Humberto de Campos, 282 - Loja 123 - Graça, Salvador - BA, 40150-130",Salvador,BA,+55 71 99945-9700,4.5,116,-12.997014199999999,-38.5193406,,
40110090,17,Luna Bella,,ChIJwVnQgo8EFgcRsb9OVdogXlI,"Av. Leovigildo Filgueiras, 21 - Garcia, Salvador - BA, 40100-000",Salvador,BA,,4.2,175,-12.990369699999999,-38.5189543,,
40110170,5,Restaurante e Pizzaria Girassol,,ChIJ-wOAM8QFFgcRIbgBIbTaTRE,"Em frente ao IBIT - Ladeira do Campo Santo, n42 - Federação, Salvador - BA, 40210-320",Salvador,BA,+55 71 98664-6057,5,2,-12.997314,-38.515212999999996,,
40110170,6,BAR E RESTAURANTE CANTINHO UNIVERSITÁRIO,,ChIJZ8TFQU4FFgcR60lGSg9-_qQ,"R. Prof. Aristídes Novis, 17 - Federação, Salvador - BA, 40210-630",Salvador,BA,+55 71 98440-9814,5,37,-12.9998835,-38.5117018,,
40110170,11,Restaurante Universitário Manoel José de Carvalho,https://www.meiodiarefeicoes.com.br/empresa,ChIJjzwWd58DFgcR3_Tr1khxwZY,"Av. Milton Santos - Ondina, Salvador - BA, 40170-110",Salvador,BA,+55 84 3645-2051,4.4,90,-13.0022671,-38.5084172,,
40110170,14,Restaurante a Moreninha,,ChIJ7arasGQDFgcRN_PDOSKqJrc,"R. Ranulfo Oliveira - Jardim Apipema, Salvador - BA, 40155-705",Salvador,BA,,4.5,21,-13.0066881,-38.515778,,
40110170,17,Bar e Restaurante da Adelaide,,ChIJF8xHWBsFFgcRufcKpxjl1hM,"Praça Marquês de Olinda, 2 - Garcia, Salvador - BA, 40100-200",Salvador,BA,+55 71 98859-2796,4.3,10,-12.9909222,-38.5089901,,
40110170,2,Sabor D'Casa Restaurante e Pizzaria,,ChIJc7P0VpwEFgcR6MlEvbHax14,"R. Teixeira Mendes, 13 - Área Limite da BCS Calabar, Salvador - BA, 40226-590",Salvador,BA,,4.3,8,-12.9993926,-38.5135168,,
40110170,7,Engenho da Pizza,,ChIJ7XkIO5wEFgcR-BBvpWQhLFk,"Ladeira do Campo Santo, 42 - Federação, Salvador - BA, 40210-320",Salvador,BA,+55 71 3261-0606,4.3,180,-12.997331299999999,-38.5152201,,
40110170,9,Restaurante kibon,,ChIJz_8PbpQEFgcRBuKqZdh_uR0,"Av. Vale do Tororó, n2 - Tororo, Salvador - BA, 40050-290",Salvador,BA,+55 71 4105-3515,4.1,103,-12.986061999999999,-38.5106239,,
40110170,11,Bêco de Rosália,https://m.facebook.com/becoderosalia/,ChIJ9WM8UH9lUAQRXEwTEnANdks,"Av. Leovigildo Filgueiras, 530 - Garcia, Salvador - BA, 40100-000",Salvador,BA,+55 71 3329-1281,4.5,96,-12.9922668,-38.516098,,
40110170,20,Restaurante Versátil,,ChIJITX1TGUDFgcROC4Us6IB8t4,"R Morro do Escravo Miguel, 320 - Ondina, Salvador - BA, 40170-000",Salvador,BA,+55 71 3263-8857,4.4,55,-13.0097369,-38.516548199999995,,
40110906,2,Cantinho da Jô,http://www.instagram.com/cantdajo,ChIJp12YVg0FFgcRIdjQGgDlMGo,"Vila Brandão - Graça, Salvador - BA, 40130-125",Salvador,BA,+55 71 99103-6024,4.6,600,-12.996874,-38.528395599999996,,
40110906,20,Dimercatto Delicatessen,http://www.dimercatto.com.br/,ChIJaRgpfIAEFgcRXkIvJfEMS5I,"R. da Graça, 120 - Graça, Salvador - BA, 40150-055",Salvador,BA,+55 71 3337-0000,4.2,1727,-12.9973165,-38.5266492,,
40130000,2,Restaurante Dorado,,ChIJo6kVDIQDFgcRh9wWXr1-UW4,"Av. Sete de Setembro, 3717 - Barra, Salvador - BA, 40140-110",Salvador,BA,,4.4,126,-13.0037319,-38.532685099999995,,
40130000,3,Restaurante Portal do Mar,http://www.mangarosa.com/,ChIJ8WzmDIQDFgcRqHszH4H4ztQ,"Av. Sete de Setembro, 510 - Barra, Salvador - BA, 40140-110",Salvador,BA,+55 71 3267-6250,4.2,623,-13.003865099999999,-38.5327404,,
40130000,4,Limusine,,ChIJ-w8Ax5MDFgcRZWnbtU3nD4Q,"Av. Sete de Setembro, 3683 - Barra, Salvador - BA, 40140-110",Salvador,BA,+55 71 3264-1059,4.4,137,-13.0034414,-38.5325458,,
40130000,5,Bistrô Bar Restaurante,,ChIJceLB0XMDFgcRZgz3DsW5pi4,"Av. Sete de Setembro, 3691 - Barra, Salvador - BA, 40140-110",Salvador,BA,,3.6,12,-13.003491299999999,-38.5325436,,
40130000,7,Restaurante Axé Bahia,,ChIJD7QeO_MDFgcRIeaXw21pOno,"Av. Sete de Setembro, 3691 - Barra, Salvador - BA, 40140-110",Salvador,BA,,4.3,46,-13.0035668,-38.532303899999995,,
40130000,8,Ancorador,,ChIJnykOBoQDFgcRN7MjLqlemKQ,"Av. Sete de Setembro, 3671 - Barra, Salvador - BA, 40140-110",Salvador,BA,+55 71 3267-4157,3.7,167,-13.0032815,-38.5325126,,
40130000,9,Restaurante Dourado,,ChIJ278AdV0DFgcRju5O_KFPa8I,"Lr. do Porto da Barra - Barra, Salvador - BA, 40130-180",Salvador,BA,,,,-13.0037273,-38.5326533,,
40130000,10,Pereira Restaurante,http://instagram.com/pereira_restaurante,ChIJcdHdhIQDFgcRtGv35ii47xk,"Av. Sete de Setembro, 3959 - Barra, Salvador - BA, 40140-110",Salvador,BA,+55 71 3264-6464,4.4,1653,-13.005569999999999,-38.5326421,,
40130000,11,"Praia Point Café - Restaurante, Lanchonete e Conveniência",,ChIJN2EcbSgDFgcRCZ_Tmw6xT9U,"Av. Princesa Isabel, 3577 - Barra, Salvador - BA, 40130-000",Salvador,BA,+55 71 98144-0333,1.8,5,-13.0028767,-38.531915999999995,,
40130000,12,Bistrô PortoSol,,ChIJQyj_DIQDFgcRzKuLHEqoRYw,"R. César Zama, 51 - Barra, Salvador - BA, 40140-030",Salvador,BA,+55 71 3264-7339,4.5,88,-13.0038427,-38.5323997,,
40130000,13,Restaurante Varanda do Porto,,ChIJcYzyZlgDFgcRQiKSuuOqdtA,"Rua Barão de Itapoan, 125 - Barra, Salvador - BA, 40140-060",Salvador,BA,,5,2,-13.0047112,-38.531979199999995,,
40130000,14,Restaurante Estrela do Mar,,ChIJB-RAi_0DFgcRLNx-6qnk8Sk,"R. Dra. Praguer Fróes, 13 - Barra, Salvador - BA, 40130-020",Salvador,BA,,4.6,13,-13.0044402,-38.5305846,,
40130000,15,Restaurante Yayá Yoyô,,ChIJuSuaj4MDFgcRtLjCHBMrrfg,"Rua Barão de Itapoan, 159 - Barra, Salvador - BA, 40140-060",Salvador,BA,+55 71 98132-3301,4.5,517,-13.0046526,-38.531752999999995,,
40130000,16,Mana - Porto da Barra,http://vempromana.com.br/,ChIJg7500boDFgcRv0Ww5lCnP_A,"Avenida Sete de Setembro, Lr. do Porto da Barra, 3861 - Barra, Salvador - BA, 40140-110",Salvador,BA,+55 71 99136-7179,4.5,252,-13.0048856,-38.5330788,,
40130000,18,Sabores da Barra Bar e Restaurante,,ChIJe6Fg_awDFgcRJWudArVoKTM,"Av. Almirante Marques de Leão, 116 - Barra, Salvador - BA, 40140-230",Salvador,BA,+55 71 3512-6721,4.2,16,-13.009559099999999,-38.5308929,,
40130000,19,Oasis,,ChIJWwEZUoEDFgcRJwQpVWRDYlU,"Av. Sete de Setembro, 3564 - Barra, Salvador - BA, 40130-001",Salvador,BA,,2.9,22,-13.002422699999999,-38.5321728,,
40130000,20,Lucius Restaurante,https://instagram.com/lucius.restaurante/,ChIJlZg3lpwDFgcRjBxbo-Rr3g0,"Av. Almirante Marques de Leão, 351 - Barra, Salvador - BA, 40140-230",Salvador,BA,+55 71 98221-4718,4.3,531,-13.008953499999999,-38.528959799999996,,
40130000,1,Boteco Gera Bar e Restaurante,http://instagram.com/farobarerestaurante,ChIJE2zAhEIDFgcRGjsKtQ3C9xc,"Av. Almirante Marques de Leão, 116 - Barra, Salvador - BA, 40140-230",Salvador,BA,,4.7,56,-13.009559099999999,-38.5308929,,
40130000,2,Acarajé da Neide,,ChIJ240SARoDFgcRDBndYpezSlo,"Praça Amigos da M.nha, 2-18 - Barra, Salvador - BA, 40140-570",Salvador,BA,,5,1,-13.004599599999999,-38.5332869,,
40130000,5,Restaurante Farol da Barra,,ChIJmXXN2HEDFgcRyMGL12dWCNg,"Av. Sete de Setembro, 4261 - Barra, Salvador - BA, 40140-110",Salvador,BA,,4,1,-13.008197599999999,-38.532211,,
40130000,7,Bar do Chico,https://website-4391473407726836550214-bar.negocio.site/,ChIJHXXZRYADFgcRnphfF0nSLC8,"R. Pres. Kennedy, 179 - Barra, Salvador - BA, 40130-200",Salvador,BA,+55 71 3017-3619,4.3,476,-13.0003701,-38.528422,,
40130000,8,Bar da Ana,,ChIJNy2n3jEDFgcRNTJjai7A8rA,"R. Marquês de Caravelas, 22 - Barra, Salvador - BA, 40140-240",Salvador,BA,,5,1,-13.0050286,-38.530044,,
40130000,9,Porto dos Sabores,https://www.instagram.com/portodossaboressaude/,ChIJzXLR2oMDFgcRzwdD72uf-xk,"R. Marquês de Caravelas, 154 - Barra, Salvador - BA, 40140-240",Salvador,BA,+55 71 99637-3243,4.6,89,-13.005769899999999,-38.5289048,,
40130000,10,Caranguejo do Farol,https://pt-br.facebook.com/CARANGUEJO-DO-FAROL-132847536800929/,ChIJIyCX4pwDFgcRmMoQlqw7bA0,"Av. Oceânica, 235 - Barra, Salvador - BA, 41950-000",Salvador,BA,+55 71 3264-6422,3.9,2669,-13.009660499999999,-38.530061499999995,,
40130000,11,Pizzaria e Restaurante Na Varanda,,ChIJqToCXNYEFgcRzl2J2ulmjhs,"Barra Summer Flat - Av. Princesa Isabel, 526 - Barra, Salvador - BA, 40140-000",Salvador,BA,+55 71 3012-0812,3.2,24,-13.003911599999999,-38.5273859,,
40130000,12,Restaurante Barravento,https://restaurantebarravento.com.br/,ChIJu0Ppk3cDFgcRk_gCke9EXQM,"Av. Oceânica, 814 - Barra, Salvador - BA, 40140-130",Salvador,BA,+55 71 3247-2577,4.5,6255,-13.0095683,-38.5254133,,
40130000,14,BRAVO Burger & Beer - Barra,http://www.instagram.com/eusoubravo,ChIJK8mbg4QDFgcRsp2m6s2_Qk0,"Av. Sete de Setembro, 3959 - Barra, Salvador - BA, 40140-110",Salvador,BA,,4.6,1444,-13.005569999999999,-38.5326421,,
40130000,15,Mc Ronald's Porto das Pizzas e Salgados,,ChIJz5QxGiIDFgcRVUZwuc_tzd4,"Rua Barão de Itapoan, 31 - Barra, Salvador - BA, 40140-060",Salvador,BA,+55 71 3511-3809,,,-13.004949199999999,-38.532950199999995,,
40130000,16,Restaurante Kitanda Gastrobar Farol da Barra,,ChIJD5XvRHEDFgcRBNfm1TZflIU,"Av. Oceânica, 28 - Barra, Salvador - BA, 40140-130",Salvador,BA,+55 71 99735-4585,4.7,114,-13.0096656,-38.5293472,,
40130000,17,Sushi Barra,https://sushibarrassa.menudino.com/,ChIJXW5bs48DFgcROQClWTcHq4c,"R. Comendador Bernardo Catarino, 171 - loja 13 - Barra, Salvador - BA, 40130-040",Salvador,BA,+55 71 98305-1444,4.6,83,-13.0049922,-38.528842399999995,,
40130000,19,Barra Burguer & Café,,ChIJOeb4LgADFgcRvQ_6T6I20I8,"Av. Almirante Marques de Leão - Barra, Salvador - BA, 40140-590",Salvador,BA,,5,1,-13.008887,-38.5272781,,
40130000,20,Boteco do Caranguejo Barra,http://www.instagram.com/botecodocaranguejo,ChIJtQI045wDFgcR8ProNF7ta1Q,"Edificio Bahia Flat, Condomínio Bahia de Todos os Santos - Av. Oceânica, 235 - Barra, Salvador - BA, 40140-130",Salvador,BA,+55 71 3016-0841,4.2,2430,-13.0094636,-38.5299438,,
40130000,1,Pasta Way Barra - Salvador,https://www.ifood.com.br/delivery/salvador-ba/pasta-way---salvador-barra/45deca6c-b45e-4e62-ad54-de1b5a5a0224?UTM_Medium=share,ChIJgcKUHiMDFgcRvLzyGIdv2uE,"Avenida Almirante Marques de Leão, n° 8 Loja 07 - Pastaway - Barra, Salvador - BA, 40140-230",Salvador,BA,+55 71 98345-0436,3.9,28,-13.0096682,-38.531290299999995,,
40130000,2,LOS MARACAS Bar e Restaurante,,ChIJO1OSGHgDFgcRlyZiJcKmglY,"R. Miguel Burnier, 126 - Barra, Salvador - BA, 40140-190",Salvador,BA,+55 71 3019-0705,4.1,56,-13.0085242,-38.5256146,,
40130000,4,Restaurante e Churrascaria Busca Vida,,ChIJd5dJrYIDFgcRmCg4HLI7GOg,"R. Afonso Celso, 82 - Barra Avenida, Salvador - BA, 40140-080",Salvador,BA,,3,11,-13.0083942,-38.5276125,,
40130000,6,Tá Rebocado! - Barra,http://www.tarebocado.com.br/,ChIJ0x8M-3sDFgcRz_ZCPU-GciA,"R. Lord Cochrane, 93 - Barra, Salvador - BA, 40140-070",Salvador,BA,+55 71 2137-3818,4.4,408,-13.0044665,-38.5295132,,
40130000,7,"Camarada Camarão Shopping Barra: Camarões, Peixes, Happy Hour, Restaurante, Salvador BA",http://www.ocamarada.com.br/,ChIJxW7JWJgDFgcREIQNwT_GWCA,"Av. Centenário, 2992 - Chame-Chame, Salvador - BA, 40149-900",Salvador,BA,+55 71 99730-9356,4.7,270,-13.0060428,-38.5238523,,
40130000,8,Pastel Barkurau,,ChIJ9S3PiMwDFgcRa5HI7llbSfM,"Rua Barão de Itapoan, 145 - Barra, Salvador - BA, 40140-060",Salvador,BA,+55 71 98180-2384,3.7,3,-13.0046287,-38.5318755,,
40130000,9,Rincón Latino,,ChIJRej7FMMFFgcRiVguDpUueJs,"R. Dom Marcos Teixeira, 112 - Barra, Salvador - BA, 40140-280",Salvador,BA,+55 71 99163-8586,4.4,73,-13.0089942,-38.5303176,,
40130000,10,JHUN,http://jhunbistro.com.br/,ChIJ__8jOJ0DFgcRMEfd_ohL6Og,"Av. Almirante Marques de Leão, 415 - Barra, Salvador - BA, 40140-230",Salvador,BA,+55 71 4102-1201,4.9,31,-13.008884,-38.5284475,,
40130000,11,Oliva Gourmet,http://www.restauranteoliva.com.br/,ChIJO1grB3kDFgcR3ZIoiigHTUs,"Av. Centenário, 2992 - Barra, Salvador - BA, 40140-902",Salvador,BA,+55 71 3247-6337,4.5,2905,-13.006749399999999,-38.5247016,,
40130000,13,MAOTAI,,ChIJO1grB3kDFgcRuk7Y894Q35g,"Av. Centenário, 2992 - Loja 163 - Barra, Salvador - BA, 40140-902",Salvador,BA,+55 71 3014-2929,4.4,46,-13.0068691,-38.525193699999996,,
40130000,14,B-Vegan Gastronomia Vegetariana,https://www.instagram.com/bvegan.gastronomia/,ChIJdW9GlZwDFgcROtto1ZuOu28,"R. Dias d'Ávila, 109 - Barra, Salvador - BA, 40140-270",Salvador,BA,+55 71 3022-2450,4.8,1262,-13.0090103,-38.531010699999996,,
40130000,15,Restaurante Lola,https://restaurante-lola-belgian-restaurant.negocio.site/?utm_source=gmb&utm_medium=referral,ChIJL5SvxLIDFgcRNiW0wtJOVjM,"Av. Oceânica, 235 - Barra, Salvador - BA, 40140-080",Salvador,BA,,,,-13.0095928,-38.530026299999996,,
40130000,17,La Blanco Pizzaria e Restaurante,,ChIJjS35i5wDFgcRjUJacrsM1Sk,"Edf. Farol Praia Center, Av. Oceânica - Barra, Salvador - BA, 40140-130",Salvador,BA,+55 71 98116-5075,3.4,158,-13.009855499999999,-38.5312791,,
40130000,18,YAN PING,http://www.yanping.com.br/,ChIJPUUkZpYEFgcRXDfuj_snodQ,"Av. Centenário, 2992 - 290 - Barra, Salvador - BA, 40140-902",Salvador,BA,+55 71 3264-1410,4,975,-13.006927399999999,-38.525296,,
40130000,19,Restaurante tempero de casa,,ChIJ448VHXgDFgcRsrFq4tcNmSM,"Av. Almirante Marques de Leão, 639 - Barra, Salvador - BA, 40140-230",Salvador,BA,,,,-13.008561799999999,-38.5262892,,
40130000,20,"Los Cervejeiros - (Bar, Restaurante e Hamburgueria)",http://loscervejeiros.com.br/,ChIJOVRvFYMDFgcRu0f_CVaiX7E,"R. Marquês de Caravelas, 358 - Barra, Salvador - BA, 40140-240",Salvador,BA,+55 71 98357-0202,4.5,263,-13.005892699999999,-38.5272629,,
40130000,1,Barra Beer,,ChIJnU-BZoIDFgcRjcNQMfDN1Wo,"R. Marquês de Caravelas, 237 - Barra, Salvador - BA, 40130-040",Salvador,BA,+55 71 3264-7494,4.4,126,-13.0052905,-38.528166899999995,,
40130000,2,Restaurante E Pizzaria Porto Do Lima S,,ChIJSdAlvpwDFgcRqkhKz9edm4U,"R. Afonso Celso, 98 - Barra, Salvador - BA, 40140-080",Salvador,BA,,4,3,-13.009063699999999,-38.531169999999996,,
40130000,3,Restaurante Suan Loun,https://www.instagram.com/restaurante.suanloun/,ChIJy5nOf3cDFgcRJvCyg5Sokdg,"Rua Airosa Galvão, 4 - Barra, Salvador - BA, 40140-180",Salvador,BA,+55 71 3332-2222,4.2,2562,-13.0092065,-38.524180199999996,,
40130000,4,Restaurante e Pizzaria A Diretoria,,ChIJ0w6GiXgDFgcR7YtWfFBEHcQ,"R. Belo Horizonte, 102A - Barra, Salvador - BA, 40140-380",Salvador,BA,+55 71 3035-3222,3.8,50,-13.0062416,-38.525994,,
40130000,5,Oxe Drinks - Barra,,ChIJ4X_Y3v4DFgcROaH4gIbThY4,"Av. Sete de Setembro, 3959 - Barra, Salvador - BA, 40140-110",Salvador,BA,+55 71 99222-3773,4.5,143,-13.005569999999999,-38.5326421,,
40130000,6,Restaurante Jardim Brasil,,ChIJh5Uhe5QDFgcRE8rEqY1y47w,"R. Belo Horizonte, 65 - Barra, Salvador - BA, 40140-380",Salvador,BA,+55 71 99160-5982,4.4,8,-13.006375199999999,-38.526311199999995,,
40130000,8,Tango Restaurante,,ChIJMTgHF70DFgcRQPuInCDOy9U,"Rua Almirante Marques de Leão n• 547 Em frente a lotérica do Barra Center - Barra, Salvador - BA, 40140-230",Salvador,BA,+55 71 99195-5591,4.5,19,-13.0087573,-38.5271332,,
40130000,9,TOKAI,http://tokaigourmet.com.br/,ChIJS460CXkDFgcR-TzEEIknIYo,"Av. Centenário, 2992 - Loja 269 - Barra, Salvador - BA, 40140-902",Salvador,BA,+55 71 3022-7874,4.5,1631,-13.0063532,-38.5239301,,
40130000,10,Tapiocaria do Farol,https://www.instagram.com/tapiocariadofarol,ChIJy9EmWZ0DFgcRIBvJ4Gxw6wI,"Av. Oceânica, 60 - Loja 08 - Barra, Salvador - BA, 40140-130",Salvador,BA,+55 71 3510-1575,4,450,-13.0093102,-38.5270625,,
40130000,14,Restaurante da Graca,,ChIJFyhDngwDFgcRJO8Be8xY0M4,"R. Afonso Celso, 492 - Barra, Salvador - BA, 40140-080",Salvador,BA,,5,1,-13.0084824,-38.5276771,,
40130000,15,Divino Restaurante,,ChIJIeXE4ncDFgcRn2OrSKFcHNs,"Shopping Barra Center - R. Marquês de Caravelas, 688 - Loja 42 - Barra, Salvador - BA, 40140-241",Salvador,BA,+55 71 99287-3185,4.2,42,-13.0091813,-38.5269148,,
40130000,16,Scooby Dog’s Street Food,,ChIJ8Xm0wGsDFgcRWcq3chjUcPA,"R. Marquês de Caravelas, 618 - Barra, Salvador - BA, 40140-242",Salvador,BA,,5,1,-13.008383,-38.526218799999995,,
40130000,17,Santiago Culinária Ibérica,https://zap.poscardapio.com.br/a4b3a33d-f6e5-4700-9c49-fd92b3acd3fb/,ChIJr4jJSsUDFgcRXJp4rz3ymRo,"Av. Oceânica, 1404 - Ondina, Salvador - BA, 40170-010",Salvador,BA,+55 71 98405-2395,4.3,75,-13.0088479,-38.520022,,
40130000,18,Camarote Bar,https://www.instagram.com/camarotebar_,ChIJsXqtRTcDFgcRI48OYZVIrHE,"Av. Almirante Marques de Leão, 139 - Barra, Salvador - BA, 40140-230",Salvador,BA,+55 71 98263-2036,4.6,154,-13.0093167,-38.5307315,,
40130000,19,Sorvete Da Bahia,https://www.instagram.com/sorvetedabahia/,ChIJ057h0XkDFgcRNu34CsQfr4o,"Avenida Sete de Setembro, Lr. do Porto da Barra, 3564 - Loja 2 - Barra, Salvador - BA, 40060-001",Salvador,BA,,4.2,41,-13.002522899999999,-38.5322915,,
40130000,20,Sr. Banana Açai - Barra Conheça e se apaixone!!!,http://srbananaacai.com.br/,ChIJNRAJsOUDFgcRhlH3y-Sjuu4,"Av. Sete de Setembro, 3855 - Barra, Salvador - BA, 40130-000",Salvador,BA,+55 71 99734-0462,3.8,24,-13.0048402,-38.533105299999995,,
40130030,13,La Taquería,,ChIJn9ek3AMDFgcRFlmcKcWS2Ww,"R. César Zama, 20 - 1 - Barra, Salvador - BA, 40140-030",Salvador,BA,+55 71 99161-5151,5,14,-13.0040737,-38.5314216,,
40130130,4,LORENA DA COSTA SILVA,,ChIJ66TLq3IDFgcRUS-s_mUuL-k,"da, Av. Sete de Setembro - Barra, Salvador - BA",Salvador,BA,,,,-13.0014446,-38.5315857,,
40130160,6,Retrô burger Bar,https://retro-burger-bar.negocio.site/?utm_source=gmb&utm_medium=referral,ChIJMz5NntkDFgcRW7iBly3tHUM,"R. Ten. Pires Ferreira - Barra, Salvador - BA, 40130-160",Salvador,BA,+55 71 3011-9499,5,6,-12.9998472,-38.528500099999995,,
40130160,14,Bendito Quintal,,ChIJPfDbSMwDFgcRE9ZyBlnNdEw,"Av. Sete de Setembro, 2998 - Barra, Salvador - BA, 40130-001",Salvador,BA,+55 71 98727-3700,3,127,-12.9988523,-38.5288871,,
40140000,16,AZEITE DOCE,,ChIJjwoKCHkDFgcRYUcClNFPmek,"Av. Centenário, 2992 - Loja 25 - Barra, Salvador - BA, 40140-902",Salvador,BA,+55 71 3035-3335,4.5,188,-13.006654,-38.523747,,
40140005,1,Platô Salvador,,ChIJs3jNS3kDFgcRU6uDthh9ffw,"R. Plínio Moscoso, 25 - Jardim Apipema, Salvador - BA, 40155-810",Salvador,BA,+55 71 99186-7506,4.2,452,-13.0038805,-38.5217871,,
40140045,17,Moqueca do porto da barra,,ChIJzdqaZsgDFgcR_fzOI0WsW3g,"R. Barão de Sergy - Barra, Salvador - BA, 40140-040",Salvador,BA,+55 71 99984-1347,3.7,6,-13.0030839,-38.532177499999996,,
40140080,7,Dona Xícara Café,https://www.instagram.com/donaxicaracafe/,ChIJvzqxL50DFgcRn8FyRnYPiSE,"R. Afonso Celso, 330 - Barra, Salvador - BA, 40140-080",Salvador,BA,+55 71 98147-3448,4.4,292,-13.0086789,-38.5290361,,
40140080,10,Boteco do Farias,https://www.instagram.com/botecodofariasoficial/,ChIJG4pyiZwDFgcRu4fOKWnfX2A,"Farol Barra Flat - Av. Oceânica, 409 - Barra, Salvador - BA, 40140-130",Salvador,BA,+55 71 3264-9311,4.1,460,-13.009312999999999,-38.5283308,,
40140080,11,Caranguejo do porto,,ChIJt6vcGDsDFgcRUEBxR7SkrPg,"R. Afonso Celso - Barra, Salvador - BA, 40140-080",Salvador,BA,,,,-13.0087586,-38.529654199999996,,
40140080,12,ARUBARRA,,ChIJ1_3rQl0DFgcR3qOwy008cCE,"Av. Oceânica, 117 - Barra, Salvador - BA, 40170-010",Salvador,BA,+55 71 4141-9131,4,397,-13.009821899999999,-38.530510799999995,,
40140080,17,Health Valley Barra,https://healthvalleybarra.negocio.site/?utm_source=gmb&utm_medium=referral,ChIJFUsWwpADFgcRzdQO_8Emru0,"R. Afonso Celso, 287 - Barra, Salvador - BA, 40150-480",Salvador,BA,+55 71 99688-6465,4.6,103,-13.0084678,-38.529554399999995,,
40140080,18,Street BBQ,https://www.instagram.com/streetbbq_ssa/,ChIJ91P9mhkDFgcR4E2Z55xZDEk,"R. Prof. Lemos Brito, 555 - Barra, Salvador - BA, 40140-090",Salvador,BA,+55 71 98620-5606,4.8,63,-13.0093859,-38.5280601,,
40140080,3,Barcelitos,,ChIJ6TsHNDYDFgcRUaB2shuiBBg,"Av. Almirante Marques de Leão, 3 - Barra, Salvador - BA, 40140-230",Salvador,BA,+55 71 99902-2411,,,-13.0096476,-38.5314064,,
40140080,7,Quattro Amici Pizzaria,http://www.quattroamici.com.br/,ChIJ8Sj15ZwDFgcREgCjrYjfiVo,"R. Dom Marcos Teixeira, 35 - Farol da Barra, Salvador - BA, 40140-280",Salvador,BA,+55 71 3264-3333,4.3,525,-13.0096224,-38.5304152,,
40140080,20,Spoleto,https://www.spoleto.com.br/tabs/cardapioapp,ChIJPUUkZpYEFgcR9ms60RadQGU,"Shopping Barra, Av. Centenário, 2992 - Loja 256 - Barra, Salvador - BA, 40140-902",Salvador,BA,+55 71 3264-9922,4.4,139,-13.006900199999999,-38.5254548,,
40140090,9,Red Burger N Bar Barra,http://www.redburgernbar.com.br/,ChIJGbwJI50DFgcR4T12Mf8mEdc,"R. Prof. Lemos Brito, 28 - Barra, Salvador - BA, 40140-090",Salvador,BA,+55 71 4104-7643,4.4,985,-13.0057496,-38.529391499999996,,
40140090,17,O Peruano,,ChIJ16vSRWsDFgcRYbruL-q6mNI,"R. Eduardo Diniz Gonçalves, 79 - Barra, Salvador - BA, 40140-310",Salvador,BA,+55 71 98270-0072,4.8,137,-13.0077391,-38.526186599999996,,
40140150,11,Yakissoba da Barra,,ChIJmy0edwwDFgcRpM27WHONTCA,"Av. Almirante Marques de Leão, 627 - Térreo - Barra, Salvador - BA, 40140-230",Salvador,BA,+55 71 2132-5000,5,3,-13.0086038,-38.5264354,,
40140150,17,CUPIM,,ChIJ7ZdpDHkDFgcRC-riwDlx1xE,"Av. Centenário, 2992 - Loja 80 - Barra, Salvador - BA, 40140-902",Salvador,BA,+55 71 3328-1014,4.5,227,-13.0069269,-38.5251099,,
40140150,20,RAIZES,http://www.restauranteraizes.com/,ChIJfXn3B3kDFgcRhmcOvqqUVa8,"Av. Centenário, 2992 - Loja 227 - Barra, Salvador - BA, 40140-902",Salvador,BA,,4.4,323,-13.0069086,-38.5253246,,
40140160,11,Rabbunne Grill,,ChIJ63BYTngDFgcRzWift-Eslq8,"Piso L1 Oeste Shopping Barra, Av. Centenário, 2992 - Barra, Salvador - BA",Salvador,BA,+55 71 3264-2958,4.1,139,-13.006938799999999,-38.5249854,,
40140160,16,Mariposa Shopping Barra,http://mariposa.com.br/,ChIJwYP1qXkDFgcRA41TA_Ud4Bw,"Av. Centenário, 2992 - Loja 166 - Barra, Salvador - BA, 40140-902",Salvador,BA,+55 71 3035-4347,4.2,1253,-13.006611999999999,-38.523832999999996,,
40140170,9,Outback Steakhouse,https://www.outback.com.br/,ChIJS5su030DFgcRuzCTAPaxFrI,"Av. Centenário, 2992 - 2898 - Chame-Chame, Salvador - BA, 40100-180",Salvador,BA,+55 71 3037-0138,4.5,5590,-13.006649399999999,-38.5244232,,
40140180,19,Carvão,,ChIJiRkn4XsDFgcRajr2Nxt8vws,"R. Prof. Sabino Silva, 5 - Chame-Chame, Salvador - BA, 40157-250",Salvador,BA,+55 71 3022-8682,4.6,637,-13.0056472,-38.521489599999995,,
40140230,16,Restaurante e Pizzaria A Diretoria,,ChIJFxi8NiADFgcRNur-vMYg1Yk,"R. Afonso Celso, 532 - Barra, Salvador - BA, 40140-080",Salvador,BA,+55 71 3512-7338,4,8,-13.008399899999999,-38.5273033,,
40140270,5,La Bouche Creperia,,ChIJbXpj8pwDFgcR8kIe_TujAcA,"R. Dias d'Ávila, 26 - Barra, Salvador - BA, 40140-270",Salvador,BA,+55 71 3506-6830,4.3,625,-13.0097439,-38.5307144,,
40140270,12,Galeto Show,,ChIJ3-5N6ZwDFgcR_PcEcCodN_s,"Av. Almirante Marques de Leão, 161 - Barra, Salvador - BA, 40140-230",Salvador,BA,,4.1,9,-13.0092213,-38.530564399999996,,
40140270,16,Oxe Que Doce,,ChIJObdwjJwDFgcRlPDXjzD7FMA,"Av. Oceânica, 93 - Barra, Salvador - BA, 40140-130",Salvador,BA,+55 71 3017-7760,4.4,94,-13.0098004,-38.5311601,,
40140270,18,Van Grogh Gastro Bar,,ChIJpVqF6JwDFgcRlkFAHZbRurk,"Alameda - Tv. Marquês de Leão, 32 - Barra, Salvador - BA, 40140-280",Salvador,BA,+55 71 3267-2478,3.3,193,-13.0093079,-38.5304651,,
40140270,19,Bar Habeas Copos,https://www.instagram.com/habeascoposbarra/,ChIJbe-T7pwDFgcRVya-09AtTLU,"Av. Almirante Marques de Leão, 172 - Barra, Salvador - BA, 40140-230",Salvador,BA,+55 71 4102-5818,4.3,200,-13.0095289,-38.5304982,,
40140270,3,Fono Reabilitar - fonoaudiologia que reabilita vidas,,ChIJMw-dw5wDFgcR7MhVK3ibezE,"R. Dom Marcos Teixeira, 111 - Barra, Salvador - BA, 40140-280",Salvador,BA,+55 77 98124-2858,4,10,-13.009024499999999,-38.5305195,,
40140290,17,Harô Sushi - Barra/BA,https://harosushi.com.br/haro-sushi/barra-salvador,ChIJzYahq38DFgcRcUpYZ7YhxTk,"Rua Marquês de Caravelas, 585, CEP:, 40140242 - Barra, Salvador - BA, 40140-242",Salvador,BA,+55 71 99119-9895,4.3,3,-13.0078698,-38.5264911,,
40140310,10,MISTER SHEIK,http://www.mistersheik.com.br/,ChIJPUUkZpYEFgcRxWV2U49ERIY,"Av. Centenário, 2992 - Loja 173 - Barra, Salvador - BA, 40140-902",Salvador,BA,+55 71 3264-5533,4,85,-13.0068513,-38.5252565,,
40140310,16,Baby Beef Express,http://www.babybeef.com.br/,ChIJGTaIDnkDFgcR2UnFk4buiYs,"Avenida Centenário, 2992 Shopping Barra, Praça de Alimentação - Piso L1 - Chame-Chame, Salvador - BA, 40155-150",Salvador,BA,+55 71 99656-8310,4.1,285,-13.006834399999999,-38.525104,,
40140310,18,CALIFA,,ChIJTyXQPZsEFgcRFM5QenECIRs,"Av. Centenário, 2992 - Loja 50 - Barra, Salvador - BA, 40140-902",Salvador,BA,+55 71 3267-8249,4.4,487,-13.006908,-38.524916,,
40140320,12,Paulistana Pizza,,ChIJv85vEMkDFgcRreBueIK8NmI,"R. Florianópolis, 31 - Barra, Salvador - BA, 40140-320",Salvador,BA,+55 71 3023-0022,4.6,114,-13.005381499999999,-38.5269869,,
40140330,12,Divino Fogão - Shopping Barra,https://divino-fogao-shopping-barra.negocio.site/?utm_source=gmb&utm_medium=referral,ChIJgys7lX0DFgcRYj0SgZq_TtU,"Av. Centenário, 2992 - Chame-Chame, Salvador - BA, 40149-900",Salvador,BA,+55 71 99665-6297,4,64,-13.006649399999999,-38.5244232,,
40140340,7,Galegoo's Restaurante,https://instagram.com/galegoosrestaurante?igshid=MmJiY2I4NDBkZg==,ChIJY8jbr5IDFgcRaZjKwzyPvh0,"Av. Princesa Leopoldina, 513 - Graça, Salvador - BA, 40150-080",Salvador,BA,+55 71 99624-7359,4.3,6,-13.003305899999999,-38.5240333,,
40140650,4,Santa Clara Cafeteria,https://www.instagram.com/santaclarasalvador/,ChIJS1Rl0AADFgcRBPyjMP6BEx4,"Largo do Farol da Barra, 03 - Barra, Salvador - BA, 40140-650",Salvador,BA,,4.2,216,-13.010651999999999,-38.5324964,,
40140850,13,Madero Steak House Salvador Barra,http://www.restaurantemadero.com.br/,ChIJpQ6cVHgDFgcRY6s7y0k32eQ,"4° Piso Shopping Center Barra, Av. Centenário, 2992 - Barra, Salvador - BA, 40140-902",Salvador,BA,+55 71 3510-0408,4.5,1689,-13.006832,-38.523719,,
40140902,15,Vivenda do Camarão,http://www.vivendadocamarao.com.br/,ChIJsYDtUngDFgcRNmxeut_xPDY,"Rua Airosa Galvão, 89 - Barra, Salvador - BA, 40140-000",Salvador,BA,,4,2,-13.006888199999999,-38.5248072,,
40140902,16,Cazollita - Shopping Barra,https://www.instagram.com/Cazollita,ChIJR8QNj4UDFgcR1ZaPL5SeVww,"Av. Centenário, 2992 - Loja 145, Piso 1 - Barra, Salvador - BA, 40140-902",Salvador,BA,+55 71 98430-7203,3,2,-13.007356699999999,-38.5247216,,
40140902,18,Mamma Jamma Shopping Barra,http://www.mammajamma.com.br/,ChIJLSFZuFoDFgcRwnlZPnzcAjU,"Avenida Centenário, 2992, Shopping Barra, piso L4, lojas 434 e 435 - Barra, Salvador - BA, 41140-400",Salvador,BA,+55 71 3035-4499,4.6,1459,-13.0066907,-38.524402599999995,,
40150050,4,Puro Saudável Graça,http://www.purosaudavel.com.br/,ChIJcRIPZU8FFgcRJZkT2vN8FHQ,"R. da Graça, 22 - Graça, Salvador - BA, 40150-055",Salvador,BA,+55 71 4102-3895,4.7,108,-12.996983199999999,-38.526007199999995,,
40150055,2,Preta Café Bistrô,,ChIJdTzkEGkFFgcR3PuPcqMWrsk,"R. da Graça, 284 - Graça, Salvador - BA, 40150-055",Salvador,BA,,4.6,7,-12.9977495,-38.5252196,,
40150055,16,Solar Graça,,ChIJ0bsFRYAEFgcRX2B_0EiFjZc,"Museu de Arte Contemporânea da Bahia - MAC Bahia - R. da Graça, 289 - Graça, Salvador - BA, 40150-055",Salvador,BA,+55 71 3328-3444,4.3,232,-12.9978164,-38.525450899999996,,
40150060,2,Bom Bistrô,https://www.instagram.com/bombistroft/,ChIJJ_61adsFFgcRKHP0nfrGt0Y,"Av. Euclydes da Cunha, 15 - 1 Andar - Graça, Salvador - BA, 40150-120",Salvador,BA,+55 71 99965-8579,5,1,-12.9988881,-38.5224516,,
40150060,6,Kuei Ling,,ChIJp1AlIIIEFgcRsqHu_v7pqUg,"R. Manoel Barreto, 33 - Graça, Salvador - BA, 40150-360",Salvador,BA,+55 71 3011-3825,4.4,468,-12.9987845,-38.5216573,,
40150060,8,Fratello Pizzaria,https://m.facebook.com/fratellopizzariasalvador/,ChIJ6wbGhYEEFgcRfWrYMByqevg,"R. da Paz, 2 - Graça, Salvador - BA, 40150-140",Salvador,BA,,4.1,403,-12.9978085,-38.522285,,
40150070,12,Restaurante Cantinho do Nito,,ChIJP587aj8DFgcRovqUVc2aujM,"Av. Centenário, 2411 - Chame-Chame, Salvador - BA, 40150-370",Salvador,BA,,5,1,-13.0026955,-38.5210455,,
40150100,8,Super Serve,https://www.instagram.com/superserve.boteco/,ChIJCdW3SXkDFgcRSWI3d8Kbsnw,"R. Plínio Moscoso, 814 - Jardim Apipema, Salvador - BA, 40155-810",Salvador,BA,+55 71 3247-6836,4.3,312,-13.0017727,-38.5184838,,
40150100,11,Pizzaria Gemeos,,ChIJFUHdvGUDFgcRdIS8CbFhlsI,"R. Ranulfo Oliveira, 19 - Jardim Apipema, Salvador - BA, 40155-030",Salvador,BA,+55 71 3235-5010,3.9,14,-13.0020688,-38.516444,,
40150120,13,Rocca Pizzaria e Forneria - Graça,,ChIJWxm02IMEFgcRGBubt2XPEeE,"R. Humberto de Campos, 1 - Graça, Salvador - BA, 40150-130",Salvador,BA,+55 71 2132-1246,4.5,233,-12.996846,-38.521497499999995,,
40150160,10,Marmita da Cris - Graça,,ChIJV51islIFFgcR56WBRL9P1FU,"Av. Euclydes da Cunha, 186 - Graça, Salvador - BA, 40150-120",Salvador,BA,+55 71 99116-6097,,,-12.9988576,-38.522249099999996,,
40150360,8,A Toka,,ChIJb2QSgcYDFgcRsNDnbtNU1Xw,"R. Deocleciano Barreto, 118 - Graça, Salvador - BA, 40150-400",Salvador,BA,+55 71 99636-6156,4.3,16,-13.002443099999999,-38.5228853,,
40150390,19,Cantina Volpi Ondina,http://www.cantinavolpi.com.br/,ChIJmU7yaHsDFgcRfkgXsYaX8sw,"R. Prof. Sabino Silva, 822 - Jardim Apipema, Salvador - BA, 40155-250",Salvador,BA,+55 71 3332-6677,4.3,3082,-13.0055672,-38.518187,,
40150460,15,Mar na Boca,,ChIJp6A-rYAEFgcRlEEo8-1e77Y,"R. Aloísio de Carvalho, 2 - Vitória, Salvador - BA, 40081-300",Salvador,BA,,4,7,-12.9943355,-38.5264921,,
40155000,5,Evsapipema Restaurante de comida saudável,,ChIJnWbvD4EDFgcRi87BHkVImnk,"R. Quintino de Carvalho, 216 - Jardim Apipema, Salvador - BA, 40155-280",Salvador,BA,+55 71 99293-2974,5,1,-13.003462299999999,-38.5178517,,
40155030,6,Toca do Cobra,https://www.instagram.com/tocadocobra/,ChIJ-S3rHf0DFgcRlW5Zeu2h7Vk,"Av. Oceânica, 2294 - Ondina, Salvador - BA, 40170-010",Salvador,BA,+55 71 99724-8162,4.4,332,-13.010348599999999,-38.514286299999995,,
40155030,8,"Alfredo'Ro Restaurante Italiano: Massas Artesanais em Barra- Ondina, Salvador",https://www.alfredoro.com.br/,ChIJYUwYOmUDFgcRMVzYClCWTPM,"Rua Morro Escravo Miguel, Blvd. Atlantic Towers, 1545 - Barra, Salvador - BA, 40140-130",Salvador,BA,+55 71 98814-5660,4.6,1970,-13.008906999999999,-38.515664199999996,,
40155030,10,B & C Bar e restaurante,,ChIJD6YHd2YDFgcRByu8Cmo_Jd8,"R. Dr. Helvécio Carneiro Ribeiro, 8 - Ondina, Salvador - BA, 40117-170",Salvador,BA,,4.2,51,-13.0095882,-38.511161799999996,,
40155030,12,Terra Mater Restaurantes,,ChIJU3K7vWUDFgcRAQ6mcAG7y2A,"Av. Pres. Vargas, 2275 - Ondina, Salvador - BA, 40140-131",Salvador,BA,,4.2,6,-13.009645899999999,-38.5123947,,
40155030,13,Restaurante Marcel Salvador,,ChIJ88QaTGUDFgcRp9b8tXlZkEE,"R Morro do Escravo Miguel, 320 - Ondina, Salvador - BA, 40170-000",Salvador,BA,,3.7,3,-13.009838199999999,-38.5165248,,
40155030,15,Varanda Burguer | Ondina,https://www.varandaburguer.com/,ChIJ2dHJiLUDFgcR99u4gDMSbU8,"R Morro do Escravo Miguel, 297 - Loja 10 - Ondina, Salvador - BA, 40170-000",Salvador,BA,+55 71 3561-6054,4.8,255,-13.009488999999999,-38.517012099999995,,
40155030,18,Lampião,,ChIJBZHgdGUDFgcRK9RSIMmVbuk,"Av. Oceânica, 2294 - Barra, Salvador - BA, 41950-000",Salvador,BA,,4.8,4,-13.010190399999999,-38.513071499999995,,
40155030,19,Sabor Baiano Restaurante,,ChIJl42GbmYDFgcRfBbtCraAtWE,"Rua Dr. Oswaldo Ribeiro - Ondina, Salvador - BA, 40170-080",Salvador,BA,,4.8,4,-13.0099019,-38.510468599999996,,
40155030,20,RED Smash,http://www.redburgernbar.com.br/,ChIJiayXvnoDFgcRYowuSGaib54,"R. Prof. Sabino Silva, 767 - Jardim Apipema, Salvador - BA, 40155-250",Salvador,BA,,4.2,343,-13.0054325,-38.517840199999995,,
40155030,5,Umami Gourmet,,ChIJ2eShsXsDFgcRtY4vh4kdHf0,"R. Prof. Amilcar Falcão, 9 - Barra, Salvador - BA, 40140-480",Salvador,BA,+55 71 3565-5255,,,-13.007003399999999,-38.5199482,,
40155030,6,Café Temaki,,ChIJb2sCkWUDFgcRaeJOy9R1FZA,"Térreo Bahia Othon Palace - Av. Oceânica, 2294 - Ondina, Salvador - BA, 40170-010",Salvador,BA,+55 71 3332-8751,3.5,2,-13.0101116,-38.5130535,,
40155030,7,Uai China,,ChIJ5VhuZmYDFgcRWuCOXykQrDw,"R. Baependi - Ondina, Salvador - BA, 40170-070",Salvador,BA,,4.5,37,-13.009546499999999,-38.5102672,,
40155030,11,Delivery SSA,,ChIJleoz4YcDFgcRgdsFYH_vtTk,"R. Plínio Moscoso, 1100 - Jardim Apipema, Salvador - BA, 40155-812",Salvador,BA,+55 71 99233-5499,,,-13.003114,-38.516379799999996,,
40155030,14,Bg & Pg Restaurante,,ChIJPTcXa3oDFgcRDk_F4dEFmCg,"Av. Oceânica, 3001 - Ondina, Salvador - BA, 40170-010",Salvador,BA,,5,1,-13.011259599999999,-38.5059484,,
40155030,18,Restaurante Sertão e Mar,https://sertaoemar.meucardapio.ai/,ChIJy1ZvwmYDFgcRNXPtv1SQDCk,"Tv. Baependi, 69 - Ondina, Salvador - BA, 40170-070",Salvador,BA,+55 71 3332-2326,4.5,1232,-13.0079487,-38.509492,,
40155030,20,Restaurante Meu Chef,,ChIJhejjIGcDFgcR2EKuSSNXO3U,"Tv. Macapá, 66 - Ondina, Salvador - BA, 40170-090",Salvador,BA,+55 71 3263-1086,4.3,242,-13.0081065,-38.5087046,,
40155060,10,Forneria,,ChIJ30ajE5ADFgcRmbkAFcKKUqk,"R. Ranulfo Oliveira, 233 - Jardim Apipema, Salvador - BA, 40155-030",Salvador,BA,+55 71 98526-4457,5,2,-13.0024771,-38.5161437,,
40155700,15,San Mei,,ChIJjYEt6HADFgcRM_Yx7yzcr14,"Ondina, Salvador - BA, 40170-070",Salvador,BA,+55 71 3347-3863,5,1,-13.0097408,-38.5102725,,
40155700,18,Porto Gastronômico,,ChIJq6MqCfoDFgcRkT4AxPN2vSY,"Av. Oceânica, 2400 - Loja 35 - Ondina, Salvador - BA, 40170-010",Salvador,BA,+55 71 98742-8175,4.8,22,-13.0106215,-38.5113652,,
40155720,7,Pastel do Robson,,ChIJC6Z59lsDFgcRrDcpU70j4jI,"R. Ranulfo Oliveira - Centenário, Salvador - BA, 40157-080",Salvador,BA,+55 71 98204-5858,5,1,-13.0037925,-38.5158345,,
40155810,16,Frango & Brasa - Delivery assados,http://app.menudino.com/frangoebrasa,ChIJF3IrC7kDFgcRm8UzTuCH26E,"R. Ranulfo Oliveira, 62 A - Jardim Apipema, Salvador - BA, 40155-030",Salvador,BA,+55 71 98170-0202,4,13,-13.003150699999999,-38.5159144,,
40170000,12,Cave Queijos Brasileiros,,ChIJq5XvRuYbFgcR06teAXv4gGE,"R Morro do Escravo Miguel, 297 - 10C - Ondina, Salvador - BA, 40170-000",Salvador,BA,+55 71 98884-7496,4.8,195,-13.0093701,-38.5170114,,
40170070,5,Confraria do Bão,https://instagram.com/confraria_dobao?igshid=ZWIzMWE5ZmU3Zg==,ChIJVdwe2-wDFgcRKGkIR6El53w,"Av. Oceânica, 2489 - Ondina, Salvador - BA, 40170-010",Salvador,BA,,,,-13.010338899999999,-38.510387,,
40170070,6,"Pizza Hut Ondina: Pizzaria, Sobremesas, Bebidas em Salvador",https://www.pizzahut.com.br/,ChIJB_S1RmYDFgcR0-YRK9iV7YY,"Rua Dr. Oswaldo Ribeiro, 45 - Ondina, Salvador - BA, 40170-080",Salvador,BA,+55 4004-6446,4.2,1657,-13.010018299999999,-38.5099535,,
40170070,9,Neto's Restaurante Ondina,https://netos-restaurante-ondina.negocio.site/?utm_source=gmb&utm_medium=referral,ChIJGU87qWcDFgcRm4CIORQVE3U,"R. Macapá, 127 - Loja 01 - Ondina, Salvador - BA, 40170-150",Salvador,BA,+55 71 99162-0081,4.5,102,-13.010167599999999,-38.5083623,,
40170070,10,Restaurante Da Rose,,ChIJLWamyDADFgcR8yrT2nt7W6w,"R. Macapá, 124 - Loja 2 - Ondina, Salvador - BA, 40170-150",Salvador,BA,+55 71 98415-0420,5,1,-13.009907799999999,-38.508351499999996,,
40170070,19,Bar Da Cris,,ChIJDRcI8wUDFgcR5PC5TYXi3jA,"R. Dr. Helvécio Carneiro Ribeiro, 8 - Ondina, Salvador - BA, 40117-170",Salvador,BA,+55 71 98789-2944,4.3,40,-13.0095048,-38.511262599999995,,
40170070,20,Restaurante Di Liana,http://www.dilianaemcasa.com.br/,ChIJ8SGtI2cDFgcRUfeTaI8mibM,"R. Macapá, 314 - Ondina, Salvador - BA, 40170-150",Salvador,BA,+55 71 3331-1266,4.6,2000,-13.008104,-38.508037699999996,,
40170070,1,Recanto das Pedras - Caranguejo,,ChIJY237vmYDFgcR2mEH10fcVJc,"R. Baependi, s/n - Ondina, Salvador - BA, 40170-010",Salvador,BA,+55 71 3247-3600,4.3,563,-13.007688,-38.5100683,,
40170070,2,Restaurante Dom Aleixo,,ChIJD3tSxHgFFgcRoXEHojjAJjo,"Av. Oceânica, 3562 - Ondina, Salvador - BA, 41950-020",Salvador,BA,+55 71 98791-3357,3.6,79,-13.010892,-38.5010185,,
40170070,4,Ondina Delicatessen,,ChIJ0VIExWYDFgcRzywKHb94Ao4,"Av. Milton Santos, 343 - Ondina, Salvador - BA, 40170-110",Salvador,BA,+55 71 4105-9311,4.2,2344,-13.0075229,-38.509460399999995,,
40170070,6,Sushi Popper,https://sushipopper.smartpos.app/,ChIJE6Bv-MMDFgcRd1TBwaHQpZc,"Tv. Baependi, 21 - Lj 11 - Ondina, Salvador - BA, 40170-090",Salvador,BA,+55 71 99258-5378,,,-13.0080078,-38.509442299999996,,
40170070,7,Casa Blue Bistrô,https://www.instagram.com/casabluebistro/?igshid=YmMyMTA2M2Y=,ChIJycJyodcDFgcRu2S_C9Obvmc,"Apart Hotel - Av. Oceânica, 2400 - Loja 47 - Ondina, Salvador - BA, 40170-010",Salvador,BA,+55 71 3203-8156,4.8,6,-13.010531,-38.511885,,
40170070,9,Bar & Restaurante - Pedra da Sereia,https://www.pedradasereia.com/,ChIJ391kX1sDFgcRstFE8usDVDs,"R. Pedra da Sereia, 66 - Rio Vermelho, Salvador - BA, 41950-020",Salvador,BA,+55 71 99964-4200,4.5,1079,-13.011370999999999,-38.500853,,
40170070,10,Speed,,ChIJM8-e_lsDFgcRxRHkCCz-3d4,"R. do Côrte Grande, 66 - Rio Vermelho, Salvador - BA, 41950-260",Salvador,BA,+55 71 99357-7265,4.8,73,-13.008467699999999,-38.5010129,,
40170070,11,Restaurante Don Gourmet,,ChIJA5bbbF8DFgcRd4OEY2_QAuE,"Centro Medico Empresarial Garibaldi, Av. Anita Garibaldi, 1815 - Loja 18/19 - Engenho Velho da Federacao, Salvador - BA, 40170-130",Salvador,BA,+55 71 3331-5353,3.6,5,-13.0040518,-38.5022672,,
40170070,12,Prato do Dia - Restaurante e Lanchonete,,ChIJEVV25fsDFgcRfgSyNtPnKOc,"Rio Vermelho, Salvador - BA, 41950-265",Salvador,BA,,4,1,-13.0095902,-38.5047248,,
40170070,13,Do Alto - Energy Food | Ondina,http://www.doalto.com.br/,ChIJMb-eHT8DFgcRxiT4obulINc,"Av. Oceânica, 2400 - Lojas 13/14 - Ondina, Salvador - BA, 40170-010",Salvador,BA,+55 71 99414-2491,2.2,12,-13.010531,-38.511885,,
40170070,17,Dea Restaurante e Variedades,,ChIJHUSeZK4DFgcR7Xbxgf0_-og,"Rio Vermelho, Salvador - BA, 41950-265",Salvador,BA,,5,1,-13.009619599999999,-38.5046694,,
40170070,19,Bar & restaurante da Bel,https://bar-restaurante-da-bel.negocio.site/?utm_source=gmb&utm_medium=referral,ChIJd_0u6eUDFgcRXczlwgZ6bqg,"Ladeira do Jardim Zoológico - Ondina, Salvador - BA, 40170-720",Salvador,BA,+55 71 98680-2007,4.9,33,-13.0089274,-38.5031866,,
40170070,20,Alma Nativa pizzaria - Ondina,http://www.almanativa.com.br/,ChIJicqfhqQDFgcRphVBtKTVjaw,"R. Macapá, 313 - Loja 1 - Ondina, Salvador - BA, 41150-170",Salvador,BA,+55 71 3561-6790,4.4,16,-13.0082265,-38.508375199999996,,
40170110,6,Meridiano Gastrofood,,ChIJxZQ_ec4FFgcRhrog0t_RnaE,"R. Agnelo Brito, 90 - Federação, Salvador - BA, 40210-245",Salvador,BA,+55 71 99337-9816,4.5,8,-13.0001401,-38.50485,,
40170110,8,Cantina Biologia,,ChIJQWBjzJ8EFgcR5KirskM3eVE,"R. Barão de Jeremoabo, 689-745 - Ondina, Salvador - BA, 40170-115",Salvador,BA,,3.6,338,-13.0013984,-38.5084577,,
40170110,13,Culinária cultural,,ChIJU2sFdOQDFgcRU3FYOgLcZ-8,"Av. Anita Garibaldi - Ondina, Salvador - BA, 40170-131",Salvador,BA,+55 71 99678-5559,,,-13.0044829,-38.5029058,,
40170110,15,Restaurante Avarandado,http://www.instagram.com/restauranteavarandado,ChIJC1gLz6AEFgcRmFmahLYxAkA,"Av. Cardeal da Silva, 180 - Federação, Salvador - BA, 40231-305",Salvador,BA,+55 71 3261-5158,4.3,387,-13.001911199999999,-38.5012933,,
40170110,20,Fino Paladar,https://instagram.com/finopaladarsalvador?igshid=12a30vufpjl16,ChIJ18p7DuwFFgcR1BV1Ha3ylcY,"Av. Anita Garibaldi, 1555 - Ondina, Salvador - BA, 40170-130",Salvador,BA,+55 71 98867-0845,3.8,17,-13.0020163,-38.503181999999995,,
40170110,9,Restaurante Tempero Baiano,,ChIJyZxw4q4DFgcRY7Lvl-Dz_9o,"R. do Côrte Grande, 39 - Rio Vermelho, Salvador - BA, 41950-260",Salvador,BA,+55 71 99300-9157,4.6,33,-13.006405599999999,-38.5021528,,
40170110,11,Restaurante Comida Caseira,,ChIJkXyS0rwEFgcRFgVacHthOoM,"R. Onze de Agosto, 16 - Federação, Salvador - BA, 40230-110",Salvador,BA,+55 71 99911-0424,4.4,39,-12.993914,-38.503065299999996,,
40170110,13,Restaurante Q delícia,,ChIJuVUVoV8FFgcRQIkHEQwUJOQ,"R. Vila América, 12 - Engenho Velho de Brotas, Salvador - BA, 40243-340",Salvador,BA,+55 71 98767-4974,5,1,-12.991820299999999,-38.5014519,,
40170110,14,Restaurante Imprensa.com,https://instagram.com/restauranteimprensa?igshid=NDk5N2NlZjQ=,ChIJj15QLgwFFgcR3Yx4iMuUsSw,"Centro Empresarial Henri Dunant - R. Agnelo Brito, 187 - Loja 6 - Federação, Salvador - BA, 40210-245",Salvador,BA,+55 71 98809-9872,5,36,-12.999348099999999,-38.504875,,
40170110,17,Bangalô Comida a Quilo,,ChIJGQ1O150EFgcRBDZIPEi8THk,"R. Prof. Aristídes Novis, 17 - Federação, Salvador - BA, 40210-630",Salvador,BA,,4.1,99,-12.999880399999999,-38.5117003,,
40170112,8,RESTAURANTE UAI TREM BÃO | TROPEIRO MINEIRÃO (ANTIGO SIRIGUELA),http://www.instagram.com/uaitrembaorestaurante,ChIJo9_SZ2YDFgcRJOmVzu6LLaY,"R. Baependi, S/N - Ondina 41, Salvador - BA, 41170-070",Salvador,BA,+55 71 99731-9539,4,89,-13.0100809,-38.5101656,,
40170120,1,Cantina Tempero Lá de Casa,https://instagram.com/cantinatempero?igshid=g6cx9kwn8zmr,ChIJg69WrOkDFgcR_rWDFTqhAck,"Av. Milton Santos, 986 - Ondina, Salvador - BA, 40170-110",Salvador,BA,,5,2,-13.0031129,-38.5065015,,
40170130,9,Cantina Casa Azul,,ChIJK2p_0p4EFgcRI_L0AuvTOYA,"R. Caetano Moura, 587 - loja 04 - Federação, Salvador - BA, 40210-340",Salvador,BA,+55 71 98283-5040,4.7,120,-12.9972807,-38.5091112,,
40170130,15,Restaurante Pimenta de Cheiro,,ChIJ5b9xc70FFgcRACB9C3fhy6o,"Rua Pedro Gama, em frente a Tv Aratu - Federação, Salvador - BA, 40301-110",Salvador,BA,+55 71 3305-4455,4.6,42,-12.996393399999999,-38.5003309,,
40170130,18,Tia Lú Restaurante,,ChIJVcb3lHYFFgcRLsZ6eWecZhk,"R. Pedro Gama - Federação, Salvador - BA, 40230-015",Salvador,BA,+55 71 98355-1765,4.9,9,-12.9961744,-38.5006255,,
40210295,2,Brabock Burger,,ChIJWbHDBJoFFgcROfH3UR1os8g,"R. Jardim Federação, 40 - Federação, Salvador - BA, 40231-305",Salvador,BA,+55 71 98237-9174,4.7,23,-12.994155399999999,-38.5023404,,
40210295,4,Pirão - Rey do Escondidinho,https://www.bigdim.com.br/delivery/reydoescondidinho,ChIJDzHQpM8FFgcRP3TgLEEEUBE,"Rua Onze de Agosto, Av. Vasco da Gama, 53f, Salvador - BA, 40230-110",Salvador,BA,+55 71 99130-7185,4.5,210,-12.993564399999999,-38.502927899999996,,
40210295,8,Andrades' bar e restaurante,,ChIJ3Y4wIQsFFgcRXBjOGu06zwQ,"R. Alm. Alves Câmara, 14 - Engenho Velho de Brotas, Salvador - BA, 40243-000",Salvador,BA,+55 71 98141-7889,4.5,20,-12.986239699999999,-38.5032025,,
40210295,10,Pastel Do Garcia,,ChIJUdGtM70EFgcRwFu1NPNRYAk,"R. Ferreira Santos - Federação, Salvador - BA, 40230-040",Salvador,BA,+55 71 3237-6224,4.4,37,-12.993331699999999,-38.5042245,,
40210295,11,La Pulperia,,ChIJi9lB2rAEFgcRBwnIl8nDAYU,"R. Novo Horizonte, 39 - Acupe de Brotas, Salvador - BA, 40290-735",Salvador,BA,+55 71 3015-7379,4.6,1477,-12.9912022,-38.4934084,,
40210295,15,MARKENTINHA RESTAURANTE,https://www.ifood.com.br/delivery/salvador-ba/markentinha-brotas-acupe-de-brotas/92cce1cd-2bb2-4648-aecc-edadc4c1f8b8,ChIJT-mVINAFFgcRH0X_qkKovlw,"R. Prof. Rômulo Almeida, 51 - Acupe de Brotas, Salvador - BA, 40290-030",Salvador,BA,+55 71 3052-2376,4.7,135,-12.9949856,-38.4905361,,
40210295,16,Viva o Sabor,,ChIJRzPIFpUFFgcRROzTZlTLbN0,"R. Miguel Lemos, 109 - Federação, Salvador - BA, 40231-110",Salvador,BA,+55 71 98864-6106,4.4,5,-12.996433999999999,-38.511795,,
40210295,19,Misturebar Restaurante,,ChIJA1J5r68EFgcRtr2BtaeoNCw,"Rua Xisto Bahia, Av. Vasco da Gama, 485 - Engenho Velho da Federação, Salvador - BA, 40230-700",Salvador,BA,+55 71 98530-7771,4.5,35,-12.997172299999999,-38.4935772,,
40210295,20,Brasa De Ouro,,ChIJP15qp6UEFgcRakJ962qOedI,"R. Sérgio de Carvalho, 45 - Engenho Velho da Federação, Salvador - BA, 40230-680",Salvador,BA,+55 71 3143-8088,4.4,230,-12.9971347,-38.497234299999995,,
40210295,2,Casa Midispache,https://midispache.negocio.site/?utm_source=gmb&utm_medium=referral,ChIJux3TwLsEFgcRstio2k8Mtfc,"R. Vila América - Engenho Velho de Brotas, Salvador - BA, 40240-635",Salvador,BA,+55 71 3261-8777,4.7,70,-12.990729799999999,-38.4992252,,
40210295,3,Lanchonete E Restaurante,,ChIJ13Wo96UEFgcRTLZVDFG3mtI,"Engenho Velho da Federacao, Salvador - BA, 40301-110",Salvador,BA,,,,-12.9990122,-38.4956856,,
40210295,6,Restaurante Cantinho da Neuza,,ChIJ63nMDvwFFgcRksLxZqvoXVU,"R. Sérgio de Carvalho, 40 - 1 andar - Federação, Salvador - BA, 40230-680",Salvador,BA,+55 71 98665-9499,5,3,-12.9963553,-38.4967864,,
40210295,7,Churascaria & Restaurante Candeal,http://www.facebook.com/churrascariacandeal,ChIJm8-btMcEFgcRM53vupS8C3s,"R. Frederico Costa, 13 - Engenho Velho de Brotas, Salvador - BA, 40243-045",Salvador,BA,+55 71 3233-3971,4.3,991,-12.982909099999999,-38.49718,,
40210295,8,restaurante master gormet,,ChIJJ0F-3TMFFgcR8kUi8LBKLMk,"Tv. Juruá, 375 - Federação, Salvador - BA, 40230-055",Salvador,BA,+55 71 98854-2533,5,1,-12.994462799999999,-38.4977249,,
40210295,11,A Taberna Bar e Restaurante,,ChIJibIm1UgFFgcR7ixfiiGuoxU,"Av. Mário Leal Ferreira, 381 - Cosme de Farias, Salvador - BA, 40285-600",Salvador,BA,+55 71 3381-8545,4.4,16,-12.9805754,-38.4973393,,
40210295,12,Sabor do Engenho Restaurante e pizzaria,,ChIJj9pTNoAEFgcRm-6WJRnAKLw,"R. Alm. Alves Câmara, 75 - Engenho Velho de Brotas, Salvador - BA, 40243-005",Salvador,BA,+55 71 3331-2558,4.2,157,-12.985616,-38.502604399999996,,
40210295,15,Restaurante Maria Felipa,,ChIJOXguUr4EFgcRI_YxVGQw-qA,"Rua Maria Felipa, 5 - Engenho Velho de Brotas, Salvador - BA, 40243-080",Salvador,BA,+55 71 3383-0191,3.8,6,-12.986611499999999,-38.503902499999995,,
40210295,18,Tuchê,,ChIJc4c_krwEFgcRAw4sVGpV1KY,"Shopping Vasco da Gama - 1, Av. Vasco da Gama, 2335 - andar sala 113, Salvador - BA, 40230-731",Salvador,BA,+55 71 3261-0058,4.6,10,-12.9900936,-38.5033388,,
40210295,20,Mercearia & Lanchonete cheiro de lanche,,ChIJX80fusIFFgcR_ffAESiR9-c,"R. Monsenhor Rubéns Mesquita, 35-A - Tororo, Salvador - BA, 40050-290",Salvador,BA,+55 71 98187-9203,3.5,6,-12.982625899999999,-38.5091511,,
40210330,19,Andy Burguer,,ChIJEyKEEqcFFgcRwOw4yQANId8,"R. Caetano Moura, 30 - Federação, Salvador - BA, 40210-340",Salvador,BA,+55 71 98218-0253,5,2,-12.9981411,-38.5122071,,
40210340,8,Bistrô Do Gago,,ChIJJfuI_JsEFgcRdAXAKqQ-LD0,"Federação, Salvador - BA, 40231-300",Salvador,BA,,4,18,-12.9964917,-38.5115452,,
40210360,1,Recanto das Tias Celia & Leda,,ChIJr61e2JkEFgcRc4fJXgPbdJI,"Tv. Padre Domingos de Brito, 25 - Garcia, Salvador - BA, 40100-820",Salvador,BA,+55 71 3235-5872,4.5,322,-12.9927216,-38.5094438,,
40210360,12,Aconchego da Zuzu,,ChIJTwJl3HwDFgcR-clZep4nV88,"R. Quintino Bocayuva, 18 - Garcia, Salvador - BA, 40100-240",Salvador,BA,+55 71 3331-5074,4.6,600,-12.9902856,-38.5082628,,
40210360,13,Restaurante Caquinho de Telha,,ChIJAcJ1txEFFgcR-sM1Lo9aLcU,"R. Prediliano Pitta, 119 - Garcia, Salvador - BA, 40100-200",Salvador,BA,+55 71 98649-0080,4.8,4,-12.991748,-38.5098652,,
40210360,15,Amilton's Bar e Restaurante,,ChIJwb7vaJcEFgcRwHJKqhDd5hc,"R. Prediliano Pitta, 123 - Garcia, Salvador - BA, 40100-200",Salvador,BA,+55 71 98429-9659,4.4,79,-12.991811499999999,-38.509744399999995,,
40210620,12,Bello Pan,,ChIJJ6JNQJwEFgcR7rbzItfcPnY,"R. Caetano Moura, 100 - Federação, Salvador - BA, 40210-341",Salvador,BA,+55 71 3235-1911,3.9,457,-12.9980806,-38.5126768,,
40220045,1,Restaurante Comida Caseira,,ChIJYXxHiBoDFgcRQiA2-R68Arw,"Av. Vasco da Gama, 940 - Acupe de Brotas, Salvador - BA, 40240-090",Salvador,BA,,,,-13.0056263,-38.4921258,,
40220045,6,Cien Fuegos Mexicano - Rio Vermelho,http://www.instagram.com/cienfuegosmexicano,ChIJQUgqsFADFgcR0TSk3pqXsvc,"R. Alexandre de Gusmão, 60 - Rio Vermelho, Salvador - BA, 41950-160",Salvador,BA,+55 71 99296-7777,4.3,2527,-13.0098053,-38.4950208,,
40220045,7,Isola Cucina Italiana,https://www.instagram.com/isolacucinaitaliana/,ChIJ27cloFEDFgcRnqSOVIHlGro,"R. Guedes Cabral, 123 - Rio Vermelho, Salvador - BA, 41950-620",Salvador,BA,+55 71 3012-0766,4.7,558,-13.012416,-38.4915568,,
40220045,8,Jabú Restô & Bar,https://linktr.ee/jabusalvador,ChIJYbq4Bs0DFgcROu5ynxz0iCA,"Rua Eurycles de Mattos, 191 - Rio Vermelho, Salvador - BA, 41950-250",Salvador,BA,+55 71 98856-0099,4.7,446,-13.0102868,-38.4961408,,
40220045,11,Vishnu Culinária Indiana,https://vishnu-culinaria-indiana.negocio.site/?utm_source=gmb&utm_medium=referral,ChIJBXQVNHkDFgcRkILkni73FQU,"R. Itabuna, 286 a - Rio Vermelho, Salvador - BA, 41940-650",Salvador,BA,+55 71 98400-5909,4.8,147,-13.010362599999999,-38.4901364,,
40220045,12,Paladar Prime (restaurante & pizzaria ) pastelaria e hamburgueria,,ChIJ-4j_hxYDFgcRCOWHXBtPpgA,"Rua Eurycles de Mattos, 8 - Rio Vermelho, Salvador - BA, 41950-250",Salvador,BA,+55 71 98157-7670,2.7,18,-13.0096486,-38.496234199999996,,
40220045,13,Sabor de Casa,,ChIJuRTbIFMDFgcRb5qVMTUpeDY,"Praça Brg. Faria Rocha, 44c - Rio Vermelho, Salvador - BA, 41940-440",Salvador,BA,+55 71 99242-1615,4.2,355,-13.0132195,-38.4860803,,
40220045,16,Restaurante Point do Galeto,,ChIJn6EHKFsFFgcR8Na3gpFPDEo,"Rua Neide, Av. Vasco da Gama, 18 - Engenho Velho da Federação, Salvador - BA, 40221-500",Salvador,BA,+55 71 99727-6959,5,2,-13.001301699999999,-38.4924596,,
40220045,17,Restaurante Salvador Dali,https://restaurantesalvadordali.com.br/,ChIJAaSnJlIDFgcRt9eqg8gKNRE,"R. Borges dos Reis, 11 - Rio Vermelho, Salvador - BA, 41950-600",Salvador,BA,+55 71 3335-4593,4.4,2077,-13.013451799999999,-38.490165,,
40220045,18,travessa Barrão do Triunfo,,ChIJxU8rUkkDFgcRSnDSzNdpHyM,"R. Parque Primavera, 37 - Rio Vermelho, Salvador - BA, 41950-870",Salvador,BA,,,,-13.0072358,-38.4974424,,
40220045,1,Restaurante Ponto Certo,,ChIJbT8xuVsDFgcRSby8VlRs1n4,"Vila Matos - Rio Vermelho, Salvador - BA, 41950-740",Salvador,BA,+55 71 3331-0036,4.3,110,-13.008932699999999,-38.4984237,,
40220045,2,PANIVINI wine bar & shop Rio Vermelho,http://www.panivini.com.br/,ChIJ4U7nYKUbFgcReV14GfcSvN8,"R. da Paciência, 131 - Rio Vermelho, Salvador - BA, 41950-010",Salvador,BA,+55 71 3190-9032,4.7,23,-13.0109002,-38.495607,,
40220045,4,Boteco Português,http://www.botecoportugues.com.br/?utm_source=google&utm_medium=wix_google_business_profile&utm_campaign=14862006877928791458,ChIJN_-XIAcDFgcRFo0ygi0BihA,"R. Borges dos Reis, 16 - Rio Vermelho, Salvador - BA, 41950-600",Salvador,BA,+55 71 3565-0599,4.4,469,-13.0130615,-38.4904228,,
40220045,5,Restaurante Ze San,,ChIJYVOi_EoDFgcRj83BSeDC89U,"Rio Vermelho, Salvador - BA, 41950-890",Salvador,BA,,5,2,-13.0093435,-38.4988336,,
40220045,7,Kotaro Restaurante de Rodízio Japonês e Delivery de comida japonesa,http://www.kotaro.com.br/,ChIJT297WqwEFgcR3ClJ6GPcaXY,"R. Juazeiro, 110 - Rio Vermelho, Salvador - BA, 41940-670",Salvador,BA,+55 71 3043-5606,4.3,434,-13.0107342,-38.4897302,,
40220045,8,Restaurante Grão de Feijão,,ChIJpQTsr6wDFgcRoQU--J8-23k,"R. Alagoinhas, 8 - Rio Vermelho, Salvador - BA, 41940-620",Salvador,BA,+55 71 99684-0359,,,-13.008421499999999,-38.4905873,,
40220045,10,Vini Figueira Gastronomia,http://www.vinifigueiragastronomia.com.br/,ChIJBVFLXsMDFgcRQWc3RfP-b6I,"Travessa Bartholomeu de Gusmão, 140 - Rio Vermelho, Salvador - BA, 41950-310",Salvador,BA,+55 71 99380-0045,4.8,565,-13.009085599999999,-38.4971634,,
40220045,11,Gringo Wing's burguer,,ChIJJ529H_wFFgcRxiTxJRhCrjM,"Av Vasco da gama, 4615 Edifício comercial Vasco da Gama, Térreo - Acupe de Brotas, Salvador - BA, 40240-090",Salvador,BA,+55 71 98477-4004,3.7,7,-13.004069999999999,-38.4918301,,
40220045,13,Bar e Restaurante D'Rose,,ChIJH_9fSIsDFgcRB0R-3AeH4Aw,"R. Waldemar Falcão, 391 - Horto Florestal, Salvador - BA, 40295-010",Salvador,BA,,4,1,-13.0070347,-38.4921206,,
40220045,14,Acarajé da Dinha,https://acarajedadinha.gesfood.com.br/autoatendimento,ChIJKZnDFlEDFgcRH0erraVtGA4,"Largo de Santana - Rio Vermelho, Salvador - BA, 41950-650",Salvador,BA,+55 71 99218-6981,4.2,9106,-13.011408099999999,-38.491892199999995,,
40220045,15,Porto Caymmi Bar e Restaurante,https://www.lojalocal.com/amstel/10849161000108,ChIJk5bNI1MDFgcRBK4EZS8BaoE,"Praça Brg. Faria Rocha, 237 - Rio Vermelho, Salvador - BA, 41940-440",Salvador,BA,+55 71 98878-3470,4.3,524,-13.012979099999999,-38.4861935,,
40220045,16,Red River Bar e Restaurante,,ChIJQX4U_1QDFgcRZ4r9sJod0MM,"R. Belmonte, 4 - Rio Vermelho, Salvador - BA, 41940-050",Salvador,BA,,4.2,19,-13.0085676,-38.4877381,,
40220045,17,Canto Restaurante,https://livemenu.app/menu/6213bfd7d33f7ab8001109ca49,ChIJMQHvv-EDFgcRsDMxS1aX_dQ,"Térreo, Tv. Prudente de Morães, 65B - Rio Vermelho, Salvador - BA, 41950-030",Salvador,BA,+55 71 4103-6727,4.4,27,-13.0106726,-38.4926507,,
40220045,19,D' Mariana Restaurante,,ChIJldu5_FMDFgcRIZlKdEwgBRs,"R. Alagoinhas, 56 - Rio Vermelho, Salvador - BA, 41940-620",Salvador,BA,+55 71 3334-4346,4.5,180,-13.010676499999999,-38.489858399999996,,
40010000,1,Restaurante Maxuell,,ChIJh4G_NuQEFgcRyin3aDvPdXE,"Av. Estados Unidos, 295 - Comercio, Salvador - BA, 40010-020",Salvador,BA,,4.4,205,-12.9704008,-38.5126433,,
40010000,2,Trem Bão,,ChIJBXnVPeEEFgcRAU_3MTYa_40,"Edifício wildberguer, Av. Estados Unidos, 18 - Comercio, Salvador - BA, 40010-020",Salvador,BA,+55 71 3326-4855,4.5,144,-12.9702881,-38.5128403,,
40010000,3,Saveiro Restaurante,,ChIJQSVMN-QEFgcR0qTeHqLZ8ms,"Av. Estados Unidos, 341 - Comercio, Salvador - BA, 40010-020",Salvador,BA,+55 71 3241-4867,4.4,212,-12.970112499999999,-38.5122344,,
40010000,4,Vida e Saúde,,ChIJP2zxSuQEFgcR1Tiu-kRzkas,"Edifício Wildberger - 4º andar, Av. Estados Unidos, 18 - Comercio, Salvador - BA, 40010-020",Salvador,BA,+55 71 3242-8891,4.6,82,-12.970472,-38.5126901,,
40010000,5,Bar e Restaurante do Soneca,https://bar-e-restaurante-do-soneca.negocio.site/?utm_source=gmb&utm_medium=referral,ChIJsyfghuYEFgcRSq0nB88F6U4,"R. Álvares Cabral, 10 - Comercio, Salvador - BA, 40015-100",Salvador,BA,+55 71 98788-0428,4.5,41,-12.9708858,-38.510811,,
40010000,6,Restaurante Tropicália,http://tropicalia-fast-food-restaurant.negocio.site/,ChIJF6o2I-YEFgcRFIXJTxGgxAM,"R. das Portas do Carmo, 1 - Pelourinho, Salvador - BA, 40026-290",Salvador,BA,,4.1,387,-12.972777599999999,-38.5096474,,
40010000,7,Mestiços Bar e Restaurante,http://edifciothemis.blogspot.ie/,ChIJV-k_q-gEFgcRrvFLFSvb-zc,"Condomínio Edifício Themis - Praça da Sé, 398 - Centro, Salvador - BA, 40020-210",Salvador,BA,+55 71 3322-3143,3.9,29,-12.9737551,-38.511060799999996,,
40010000,8,Restaurante Sabor Brasil,,ChIJn4TwTO8EFgcRgHvBWwcrr9k,"Praça da Sé, 398 - Pelourinho, Salvador - BA, 40020-210",Salvador,BA,+55 71 3322-3143,3.8,24,-12.974060399999999,-38.511512599999996,,
40010000,9,Restaurante Portal do Pelô,,ChIJQXxxShkFFgcRAErYOHx9p0Q,"R. das Portas do Carmo, 33 - Pelourinho, Salvador - BA, 40026-290",Salvador,BA,,4.6,105,-12.9722957,-38.5089073,,
40010000,10,Bar e restaurante do Márcio,,ChIJozWiErUFFgcRcdTYDm2o6FY,"Pr. Visc. de Cayru, 3 - Comercio, Salvador - BA, 40015-170",Salvador,BA,+55 71 3241-8002,3.1,15,-12.97307,-38.5132949,,
40010000,11,Restaurante Pelô Bistrô,http://www.pelobistro.com/,ChIJOTaCTuYEFgcRR08CHATWWmg,"Hotel Casa do Amarelindo - R. das Portas do Carmo, 6 - Pelourinho, Salvador - BA, 40026-290",Salvador,BA,+55 71 3266-8550,4.6,433,-12.971931,-38.5091925,,
40010000,13,Restaurante Café Havana,https://www.facebook.com/restaurantecafehavana/,ChIJqXBTouUEFgcRlili_fyg3M0,"Av. Estados Unidos, 136 - Comercio, Salvador - BA, 40010-020",Salvador,BA,+55 71 3242-5640,4.1,610,-12.9715224,-38.513360299999995,,
40010000,14,Restaurante Pimenta de Cheiro,,ChIJE-iHj-YEFgcRrt-KLOKgdSs,"R. Conselheiro Saraiva, 119 - Comercio, Salvador - BA, 40015-100",Salvador,BA,+55 71 3243-6506,4.3,69,-12.971114799999999,-38.5113784,,
40010000,15,Special Grill Restaurante,,ChIJ7UeKm-UEFgcR8A6YZdd7xkQ,"R. da Grécia, 6 - Comercio, Salvador - BA, 40010-010",Salvador,BA,+55 71 99648-6397,4.3,24,-12.972023499999999,-38.5135606,,
40010000,16,Restaurante Maná Grill,http://www.managrill.com.br/,ChIJ9_zIm-gEFgcR2WyPopVHeZM,"Largo do Cruzeiro de São Francisco, 7 - Pelourinho, Salvador - BA, 40020-280",Salvador,BA,+55 71 3322-1782,3.3,68,-12.9740149,-38.5095478,,
40010000,19,Maria Mata Mouro,https://instagram.com/mariamatamouro?igshid=MTIyMzRjYmRlZg==,ChIJ5_-Jh-gEFgcRYJJMNziEVwY,"Rua da Ordem Terceira, 08 - Pelourinho, Salvador - BA, 40026-260",Salvador,BA,+55 71 99160-6102,4.6,668,-12.974111599999999,-38.508693,,
40010000,20,Raiz Restaurante,http://raiz.uzimenu.com/,ChIJ2VVegQkFFgcRfsBO_W7aXMU,"R. do Carmo, 6 - Santo Antonio, Salvador - BA, 40301-380",Salvador,BA,+55 71 98194-3136,4.9,206,-12.9689784,-38.5077818,,
40010000,2,Socri Bar e Restaurante,,ChIJ177Pg-gEFgcRKRNEXjhaP1Q,"Largo Terreiro de Jesus, 15 - Centro, Salvador - BA, 40025-010",Salvador,BA,,3,2,-12.973539299999999,-38.509901899999996,,
40010000,3,Ó Paí Ó Restaurante,http://www.instagram.com/opaiopelo,ChIJl-xs_hQFFgcRuU05lC8Qods,"Largo Terreiro de Jesus, 4 - Pelourinho, Salvador - BA, 40026-010",Salvador,BA,,4.1,125,-12.973140899999999,-38.5093787,,
40010000,4,Divina Gula,,ChIJp8-zBeQEFgcRadTUfM8CRvk,"Av. da França, 414 - Comercio, Salvador - BA, 40010-000",Salvador,BA,+55 71 3243-9602,3.8,19,-12.9694624,-38.512022699999996,,
40010000,5,Grill Quem Diria,,ChIJ-777Qo8FFgcRdbo4m4dMqTE,"R. Conselheiro Dantas, 20 - Comercio, Salvador - BA, 40015-070",Salvador,BA,+55 71 99612-8294,4.5,4,-12.9707663,-38.5116598,,
40010000,6,Restaurante Kilombo,https://instagram.com/kilombo.restaurante?igshid=105xiygto85i6,ChIJTRKAyOUFFgcREjGxNnS8wIY,"R. Rodrigues Alves, 18 - Comercio, Salvador - BA, 40015-310",Salvador,BA,+55 71 99378-5650,4.5,69,-12.970710799999999,-38.5103826,,
40010000,7,Restaurante Dom do Sabor,,ChIJ70e-iMwFFgcR590RoccOBZA,"Rua Manoel Vitorino, R. da Conceição da Praia, 18 (sobreloja, Salvador - BA, 40015-220",Salvador,BA,+55 71 99315-2565,,,-12.9761324,-38.5151012,,
40010000,8,Porto Bahia,,ChIJj97bCuUEFgcRiEXdKV5PvPg,"R. da Grécia, 165 - Comercio, Salvador - BA, 40015-320",Salvador,BA,,4.3,102,-12.9716703,-38.5140853,,
40010000,9,Restaurante Flor da Terra,,ChIJBdruo-8FFgcRb9pWFVe0X0Q,"R. Torquarto Bahia, 64 - Comercio, Salvador - BA, 40015-110",Salvador,BA,+55 71 99900-5420,4.5,52,-12.9698228,-38.510249099999996,,
40010000,10,Torremolinos,,ChIJjxEAe-YEFgcRUqAIMiGnYY8,"R. Francisco Gonçalves, 3 - Comercio, Salvador - BA, 40015-090",Salvador,BA,+55 71 3326-0066,4.6,126,-12.9712558,-38.511069899999995,,
40010000,11,Restaurante Maria de São Pedro,,ChIJ61itZNwEFgcRQn2CX41cLRA,"1º Mercado Modelo - Pr. Visc. de Cayru, 250 - Comercio, Salvador - BA, 40015-170",Salvador,BA,+55 71 3242-5262,3.7,316,-12.972814,-38.51423,,
40010000,12,Savoy,,ChIJsZ_mkOUEFgcRgtg1HGI5Cpk,"R. Miguel Calmon, 114 - Comercio, Salvador - BA, 40010-015",Salvador,BA,+55 71 99978-1784,4.5,114,-12.9721563,-38.5130723,,
40010000,13,Cid's,,ChIJWVuRj-YEFgcR29zD6nS7_yo,"Rua Conde D'Eu, 6 - Comercio, Salvador - BA, 40015-320",Salvador,BA,+55 71 99972-2772,4.5,232,-12.9705572,-38.5102226,,
40010000,14,Restaurante e churrascaria viller gourmet,,ChIJZXHweOYEFgcRiZNCCGDHT0M,"R. Álvares Cabral, 1 - Comércio, Salvador - BA, 40015-330",Salvador,BA,+55 71 3326-7792,4.5,321,-12.9713134,-38.5111273,,
40010000,15,Restaurante Ponto 32,,ChIJrSZQ8uUEFgcRDBg5uxHGUH4,"R. Santos Dumont - Comercio, Salvador - BA, 40015-180",Salvador,BA,,4.5,29,-12.9726272,-38.5123612,,
40010000,16,Jacy Restaurante,,ChIJy7J85u4FFgcRwmxbfYFXfGI,"Pç Visconde de cayru 242 Terei quadra T bl 5 - Comercio, Salvador - BA, 40015-170",Salvador,BA,+55 71 98789-3148,3.5,4,-12.9727275,-38.513979299999995,,
40010000,17,Restaurante e Pizzaria Casa da Roça,,ChIJnSw-OucEFgcRdSdKyX1A5ts,"Ladeira do Carmo, 27 - Santo Antônio Além do Carmo, Salvador - BA, 40301-410",Salvador,BA,+55 71 3241-5794,4.3,181,-12.9697573,-38.507728199999995,,
40010000,18,Bar e Restaurante Q.Delícia,,ChIJ8cAr5-4EFgcR2r_3idHGjls,"R. da Ajuda, 03 - Centro, Salvador - BA, 40020-035",Salvador,BA,+55 71 3321-5023,5,3,-12.9756041,-38.512633199999996,,
40010000,19,Restaurante Camafeu De Oxóssi,http://restaurantecamafeudeoxossi.blogspot.com.br/,ChIJn24mfuUEFgcR-nJRQxXSFhI,"Mercado Modelo - Pr. Visc. de Cayru, S/N - Comercio, Salvador - BA, 40015-900",Salvador,BA,+55 71 99630-0066,4.1,194,-12.9727161,-38.5141081,,
40010000,20,Preto e Branco Café e Restaurante,,ChIJgTVv0OUEFgcRdK0upwAhrn0,"R. Conselheiro Dantas, 11 - Comercio, Salvador - BA, 40015-070",Salvador,BA,+55 71 3326-5016,4.5,299,-12.9713698,-38.5117325,,
40010000,1,Poró Restaurante & Bar,https://instagram.com/pororestaurantebar/,ChIJ0RwPleAEFgcRIBjM-OapPAs,"R. Direita de Santo Antônio, 445 - Santo Antônio Além do Carmo, Salvador - BA, 40301-280",Salvador,BA,+55 71 99618-1704,4.5,1534,-12.9644284,-38.504607899999996,,
40010000,2,Restaurante Xangai Brasil,,ChIJk4mZYu8EFgcR0tx2LMJ7yWQ,"R. Visc. do Rosário, 4 - Comercio, Salvador - BA, 40015-050",Salvador,BA,+55 71 3013-8275,3,1,-12.972892199999999,-38.513168,,
40010000,3,Dona Baiana,http://www.facebook.com.br/donabaianarestaurante,ChIJLdISqegEFgcRPZe0uRJS5MA,"Praça da Sé, 16 - Centro, Salvador - BA, 40020-210",Salvador,BA,+55 71 99734-3309,4.5,64,-12.973531399999999,-38.5108708,,
40010000,4,Cantina da Lua,https://memorialcantinadalua.com.br/,ChIJN1IP1-8QFgcR_5CgpfqgTFs,"Centro Histórico - Praça Quinze de Novembro, 2 - Pelourinho, Salvador - BA, 40026-010",Salvador,BA,,3.3,77,-12.972916999999999,-38.5096328,,
40010000,5,Restaurante do Cosme,,ChIJAZ42bxAFFgcRXTORbrXE1DI,"R. do Curriachito, 15 - Centro Historico, Salvador - BA, 40024-090",Salvador,BA,,4.8,4,-12.9769007,-38.5130832,,
40010000,6,Boteco do Comércio,,ChIJa_-9SZkFFgcRSqBS018eBT4,"R. Rodrigues Alves, 10 - Comercio, Salvador - BA, 40015-330",Salvador,BA,+55 71 98862-4574,4.6,63,-12.9710346,-38.510681399999996,,
40010000,7,Restaurante Luz do Sol,,ChIJ3dhiqOgEFgcRMqU8AHUb6cU,"Rua do Bispo, nº 07, - Praça da Sé - Centro, Salvador - BA, 40020-286",Salvador,BA,+55 71 98784-8752,4.1,11,-12.973438,-38.510678,,
40010000,12,Restaurante Uauá,https://restaurante-uaua.goomer.app/?fbclid=PAAab6RT-C9qFBJeSjVTxXwHOUUFrXdW36orD0La1Q7_Jz9jwEW5CtL_SqC0k_aem_AT7_woE2EqUqEfQMfume2elOO5wxS11w1H6fh_EW4kgeogJi7q55UNiwHCgrg0vqV6E,ChIJJ_lesecEFgcRQstSJp-npEI,"R. Maciel de Baixo, 36 - Pelourinho, Salvador - BA, 40026-240",Salvador,BA,+55 71 98193-6757,4.5,260,-12.9722227,-38.5083829,,
40010000,13,Restaurante Casarrara,http://linktr.ee/casarrara,ChIJcXicxsQEFgcR_NNjgOPTXCo,"R. Castro Neves, 199 - Matatu, Salvador - BA, 40255-020",Salvador,BA,+55 71 3322-0006,4.4,1027,-12.9759798,-38.4992561,,
40010000,14,Restaurante Cajueiro,,ChIJEek7gOgEFgcRxaK1zhj-OuE,"R. das Laranjeiras, 18 - Pelourinho, Salvador - BA, 40026-230",Salvador,BA,+55 71 98793-3941,4.4,118,-12.9737543,-38.508638,,
40010000,16,Restaurante Escola Senac Pelourinho,,ChIJ4xRmB-cEFgcRB41bAbPpLHw,"Largo do Pelourinho, 13 - Centro Histórico, Salvador - BA, 40026-280",Salvador,BA,+55 71 3324-8101,4.7,1480,-12.971428099999999,-38.50823,,
40010000,19,restaurante marujo,,ChIJueySN-QEFgcRRZ-AxCZ_SaY,"rua da argentina loja e F - Comercio, Salvador - BA, 40010-020",Salvador,BA,+55 71 98301-3582,,,-12.9677087,-38.5096254,,
40010000,20,Axego,https://www.instagram.com/axegorestaurante/,ChIJy9cVL-YEFgcRuA2kX5V6Zmc,"R. J Castro Rabelo, 16 - Pelourinho, Salvador - BA, 40026-180",Salvador,BA,,4.6,626,-12.9727096,-38.508885899999996,,
40010000,2,Pastelaria E Lanchonete Tan,,ChIJfVTSKuQEFgcRy4OBn4snA4U,"R. Conselheiro Dantas, 20 - Comercio, Salvador - BA, 40015-070",Salvador,BA,+55 71 98621-3130,4.5,2,-12.970813699999999,-38.5116066,,
40010000,3,CGC Restaurante - Cantinho Gourmet do Centro,,ChIJoW-0qegEFgcRhRZrEkGWJeY,"Praça da Sé, s/n - Centro, Salvador - BA, 40020-210",Salvador,BA,+55 71 3321-0074,4.6,164,-12.973434,-38.5107284,,
40010000,6,Bar e Restaurante Kilimanjaro,,ChIJv_PTkZoFFgcRYsYv6xrX_lA,"Praça Pedro Arcanjo - Pelourinho, Salvador - BA, 40026-230",Salvador,BA,+55 71 99111-9935,5,5,-12.973553599999999,-38.508441,,
40010000,7,RESTAURANTE SÃO GABRIEL,,ChIJR5nIah0FFgcRAOzaX_6Jkb8,"R. do Carro, n° 06 - Nazaré, Salvador - BA, 40301-110",Salvador,BA,,,,-12.9770269,-38.508162299999995,,
40010000,8,Omí Restaurante,,ChIJZa5mYPsFFgcREXGOX5mATtk,"R. Chile, 20 - Centro Histórico, Salvador - BA, 40020-000",Salvador,BA,+55 71 99653-5703,4.7,77,-12.9761232,-38.5135392,,
40010000,9,Caravelas Bar e Restaurante,https://instagram.com/caravelasbare?igshid=103zdx6s0akwe,ChIJBWE9Yu4EFgcRXa95DhzHc90,"Térreo Ed Bráulio Xavier, R. Chile, 22 - Centro, Salvador - BA, 40020-000",Salvador,BA,+55 71 3321-0901,4.3,187,-12.976555999999999,-38.513964,,
40010000,10,Sesc Comércio,http://www.sescbahia.com.br/,ChIJq6hjk-YEFgcRn9geUH6VD64,"Edf. Quirino José Gomes - R. Torquarto Bahia, 3 - 1º andar - Comercio, Salvador - BA, 40015-110",Salvador,BA,+55 71 3254-3926,4.5,334,-12.9700329,-38.509944,,
40010000,11,Temperô - Restaurante e Churrascaria,,ChIJM_Qav78FFgcR9ubZ7K55ofk,"Av. José Joaquim Seabra, 204 - Saúde, Salvador - BA, 40040-700",Salvador,BA,+55 71 99359-3141,4.1,7,-12.9728119,-38.5075639,,
40010000,14,Sorriso da Dadá,,ChIJa30PRswEFgcRiwiQqArsntw,"R. Frei Vicente, 05 - Pelourinho, Salvador - BA, 40026-030",Salvador,BA,+55 71 3321-5819,4.1,414,-12.973055599999999,-38.508611099999996,,
40010000,15,Restaurante Portal do Mar,,ChIJ93IZtu0EFgcRPpJ2BA37oxo,"Av. Sete de Setembro, 1 - Barra, Salvador - BA, 40060-002",Salvador,BA,,5,5,-12.978668899999999,-38.5142909,,
40010000,16,"O Lôro Bahia Marina: Barraca de Praia, Restaurante, Bar, Salvador BA",,ChIJGa4NS70FFgcRc2b3nPFvH64,"R. Sônia Leal Borges, 1010 - Comercio, Salvador - BA, 40060-110",Salvador,BA,+55 71 99661-2019,4.4,254,-12.980191999999999,-38.5200241,,
40010000,18,Bar e Restaurante São Luiz,,ChIJgwPv5DsFFgcRyf-oOSNtQzY,"Largo Dois de Julho, 109 - Centro, Salvador - BA, 40060-330",Salvador,BA,,5,2,-12.9819338,-38.516102499999995,,
40010000,20,Toni laches e restaurante,,ChIJcXskBgkFFgcRt_XjZj77K00,"Av. José Joaquim Seabra, 139A - Baixa dos Sapateiros, Salvador - BA, 40025-000",Salvador,BA,+55 71 98269-2422,3.8,4,-12.975437999999999,-38.5079798,,
40010010,13,Odoyá,,ChIJCbTcnugEFgcRxNBeHS9GDjU,"Largo do Cruzeiro de São Francisco, 1 - Pelourinho, Salvador - BA, 40020-280",Salvador,BA,+55 71 98604-8493,4.4,2982,-12.9737279,-38.5097515,,
40015000,14,Mariposa,http://www.casarao17.com.br/,ChIJ1Xno1YgFFgcRhfU5Ksi9z3U,"Largo Terreiro de Jesus, 17 - 100 - Pelourinho, Salvador - BA, 40026-010",Salvador,BA,+55 71 3321-3749,4.6,679,-12.973642799999999,-38.5098312,,
40015015,2,Antique Bistrô,https://instagram.com/antiquebistro_?igshid=pkwmvvmo48ah,ChIJTdsBLcsFFgcRfACi9FamKpk,"R. do Carmo, 06 - Santo Antônio Além do Carmo, Salvador - BA, 40301-380",Salvador,BA,+55 71 99912-6082,4.7,404,-12.968913299999999,-38.507726999999996,,
40015015,8,Cadê Q'Chama?,https://www.instagram.com/invites/contact/?i=143hg6u0t2l19&utm_content=1emlqfp,ChIJtdSIk-AEFgcR7JlXhIi9jbA,"Rua do Carmo, 21 - Santo Antônio Além do Carmo - Santo Antonio, Salvador - BA, 40301-380",Salvador,BA,+55 71 98637-8873,4.6,356,-12.96769,-38.507114,,
40015015,10,Donna Pimenta,https://instagram.com/donnapimentassa/,ChIJa0H8secEFgcRKGEZEKNbxVU,"R. Maciel de Baixo, 55 - Pelourinho, Salvador - BA, 40026-240",Salvador,BA,+55 71 99411-1445,4.3,253,-12.9719178,-38.5082632,,
40015015,11,A Marujada,http://www.instagram.com/amarujada,ChIJES8bAM4FFgcRNQIi9U20RNk,"R. do Passo, 37 - Santo Antonio, Salvador - BA, 40301-408",Salvador,BA,+55 71 99413-6061,4.5,116,-12.969754,-38.50816,,
40015015,20,Casa da Gamboa,,ChIJgyNC6v4PFgcRFWWNmanfV2w,"R. do Açouguinho - Pelourinho, Salvador - BA, 40026-010",Salvador,BA,+55 71 98164-4244,4.3,130,-12.972531799999999,-38.509103599999996,,
40015015,8,Bar Cruz do Pascoal,,ChIJR-jakeAEFgcRlJHuZsU16wQ,"R. Direita de Santo Antônio, 02 - Santo Antônio Além do Carmo, Salvador - BA, 40301-280",Salvador,BA,+55 71 3243-2285,4.5,1437,-12.9674658,-38.5070202,,
40015015,14,Poró,,ChIJZ7XIUN0FFgcRwBQ7eYilSsI,"R. do Carmo, 13 - Santo Antônio Além do Carmo, Salvador - BA, 40301-380",Salvador,BA,,,,-12.9678893,-38.5071923,,
40015035,10,Morena Bolos Café e Restaurante,,ChIJEUvSx0QFFgcRbZ423vzgLSU,"AVENIDA Jequitaia, 42 - Edifício - Comercio, Salvador - BA, 40015-035",Salvador,BA,+55 71 98877-9222,5,4,-12.9691944,-38.510548199999995,,
40015160,7,Mistura Perfeita,https://www.instagram.com/mistura.perfeita/,ChIJu9JfWukEFgcRFynaJzBoh0c,"R. Prof. Palma, 31 - Nazaré, Salvador - BA, 40040-080",Salvador,BA,+55 71 99939-3410,4.5,512,-12.9778415,-38.5113669,,
40015160,16,Lacerda Café,,ChIJgy1FtFwFFgcRpFYhTYmxL3k,"Ao lado do Elevador Lacerda - R. da Conceição da Praia, 02 - Comercio, Salvador - BA, 40015-250",Salvador,BA,+55 71 99957-8808,4.7,56,-12.974167099999999,-38.5135408,,
40015160,19,Restaurante dona zeni,,ChIJVRTAnLcFFgcR8tNl_-KV3h0,"R. Guedes de Brito, 2-56 - Centro, Salvador - BA, 40020-260",Salvador,BA,+55 71 98872-5215,,,-12.9748409,-38.5104409,,
40015250,11,Amado,http://www.amadobahia.com.br/,ChIJYVCliowEFgcRAo-uw-6Dcdc,"Av. Lafayete Coutinho, 660 - Comercio, Salvador - BA, 40015-160",Salvador,BA,+55 71 3322-3520,4.7,2092,-12.978438899999999,-38.5172832,,
40015310,15,Oxente Bistrô,http://www.instagram.com/oxentebistro.pelourinho,ChIJ9yFulP4FFgcR_7O60NsR23I,"R. das Portas do Carmo, 3 - Pelourinho, Salvador - BA, 40026-010",Salvador,BA,+55 71 98861-3762,4.7,64,-12.9728485,-38.5095381,,
40020015,11,Bistrot Trapiche Adega,http://bistrottrapiche.com.br/,ChIJFffXwZUFFgcR-_Sognia8eg,"Av. Lafayete Coutinho - Comercio, Salvador - BA, 40301-110",Salvador,BA,+55 71 2132-5509,4.4,251,-12.977340199999999,-38.516661299999996,,
40020015,13,Guarany Restaurante Salvador,https://jornalbahia.com/salvador-restaurante-guarany/,ChIJ4SEDofwFFgcREMfTWvTQOPk,"Cine Metha Glauber Rocha - Praça Castro Alves, 5 - 1º andar - Centro, Salvador - BA, 40020-160",Salvador,BA,,4.9,16,-12.9769414,-38.5143427,,
