CEP,Position,Title,Link,Place ID,Address,City,State,Phone,Rating,Reviews,Latitude,Longitude,UF,Location
72800100,1,Restaurante e Quitanda Pão de Queijo & Cia,https://instagram.com/restaurante_pao_de_queijo_e_ci,ChIJ8Vp7ovGZWZMRlsjI9zHGlrA,"R. José Eugênio, 173 - Centro, Luziânia - GO, 72800-160",Luziânia,GO,+55 61 99662-3321,4.3,11,-16.2568129,-47.9536771,,
72800100,2,Forneria D'oro Gastrobar,https://mechamenozap.com.br/forneriadorogastrobar/,ChIJTzn_2laYWZMRvjC6u4sfk5c,"R. Benjamin Roriz, Q 18 - Lote 12 - St. Aeroporto, Luziânia - GO, 72801-147",Luziânia,GO,+55 61 3622-5800,4.5,591,-16.256826099999998,-47.956012,,
72800100,3,Bistrô Food,,ChIJPctOAEWZWZMRhYvGZ0q_vTg,"R. Ophir José Braz, 122 - Centro, Luziânia - GO, 72800-150",Luziânia,GO,+55 61 99589-6035,5,2,-16.2557777,-47.954757799999996,,
72800100,4,Sushiloko,,ChIJQUCc5lCYWZMRinahfWwE0KQ,"R. Ophir José Braz, 0 - Centro, Luziânia - GO, 72800-140",Luziânia,GO,+55 61 3052-6337,4.2,100,-16.2557683,-47.954926699999994,,
72800100,5,Star Choperia,,ChIJiz4g5MOZWZMRmF4T9bCmAwQ,"R. Ophir José Braz - Centro, Luziânia - GO, 72800-150",Luziânia,GO,+55 61 99842-1812,3.3,3,-16.2560865,-47.955138899999994,,
72800100,6,Expresso Sushi,http://www.expressosushi.com.br/,ChIJczKgUp6ZWZMRG1_eu-qwpqI,"Shopping - Rua Ophir José Braz 122, Loja 307 e 308, 3º piso - Centro, Luziânia - GO, 72800-150",Luziânia,GO,+55 61 99556-0988,3,22,-16.2557916,-47.9547811,,
72800100,7,COXA CONE - LUZIÂNIA,,ChIJ_84-Vp-ZWZMRJAHgevOrC-U,"Rua Ophir Jose braz. 0 Aréa Especial, Quiosque 9 - Centro, Luziânia - GO, 72800-150",Luziânia,GO,+55 61 99446-9035,,,-16.2559684,-47.9549273,,
72800100,8,Bomba Grill,,ChIJW9-6clqYWZMRzVGvB9LPotY,"Rua Benjamin Roriz, quadra 18, Lote 15, s/n - Centro, Luziânia - GO, 72800-380",Luziânia,GO,+55 61 3622-1910,4,685,-16.2565039,-47.9564599,,
72800100,9,LE KEBEK,,ChIJHyB9K32ZWZMRw4yBE9hDRAU,"Praça Nilson - Tv. Nirson Carneiro Lôbo, S/N - Centro, Luziânia - GO, 72800-010",Luziânia,GO,+55 61 3609-1598,4,2,-16.2552639,-47.9555401,,
72800100,10,Restaurante Paladar Goiano,,ChIJA8rY406YWZMRdylKsrdGmbo,"Av. Jovêntino Rodrigues, 413-465 - Santa Luzia, Luziânia - GO, 72803-010",Luziânia,GO,+55 61 3622-5554,4.3,649,-16.2536315,-47.9481165,,
72800100,11,Self Service Palladar,,ChIJ1w-5BFSYWZMRLzmmlhTNUa4,"R. Padre Bernardo, 12 - Centro, Luziânia - GO, 72800-490",Luziânia,GO,+55 61 3621-1341,4.4,899,-16.25433,-47.9560683,,
72800100,12,Restaurante Tradição Mineira,,ChIJzXcoBFSYWZMR3rRXEJx7y14,"Centro, Luziânia - GO, 72800-460",Luziânia,GO,,4.7,31,-16.2531224,-47.9569749,,
72800100,13,Restaurante Verace,,ChIJnSaIeiiZWZMR1lbh6xdSgUA,"R. José Franco Pímentel, 89 - Centro, Luziânia - GO, 72800-500",Luziânia,GO,+55 61 3621-1372,4.3,15,-16.253210199999998,-47.955853499999996,,
72800100,14,Lanchonete Braz Getúlio,,ChIJd_Hk9zeZWZMRhvFdPSv20iQ,"R. Ophir José Braz, 314 - Jardim do Inga, Luziânia - GO, 72800-150",Luziânia,GO,,,,-16.2554433,-47.9550017,,
72800100,15,Pops açaí,,ChIJ9XI0nu6ZWZMR9D61UVnlaL4,"Praça gelmires Reis - Centro, Luziânia - GO, 72800-150",Luziânia,GO,,5,2,-16.2565858,-47.9540381,,
72800100,16,Espetaria do Leitão,,ChIJYWYl_1CYWZMR8fj4oAVs494,"R. Padre Domingos, Qd 34 - Lt 1B - Centro, Luziânia - GO, 72800-460",Luziânia,GO,+55 61 99807-9453,4.6,178,-16.2536962,-47.9575409,,
72800100,17,RESTAURANTE COZINHA BRASIL LUZIANIA,https://restaurante-cozinha-brasil-luziania.negocio.site/?utm_source=gmb&utm_medium=referral,ChIJKyxQcFGYWZMRieVWSgDjGU8,"R. Florentino Chaves, 82 - Centro, Luziânia - GO, 72800-520",Luziânia,GO,+55 61 3622-6428,4.4,100,-16.2536666,-47.9544007,,
72800100,18,Hotel E Restaurante Vitoria,http://business.google.com/website/hotel-e-restaurante-vitoria,ChIJVVHMJ1KYWZMRfKyPtW5jqZk,"R. Americano do Brasil - Centro, Luziânia - GO, 72801-013",Luziânia,GO,+55 61 3621-2382,4.4,17,-16.251254,-47.954923099999995,,
72800100,19,"Lanchonete Tropical ""O Lanche do Gordinho""",https://www.facebook.com/lanchedogordinho?fref=ts,ChIJb4FKwFCYWZMReIT9N3SuP3c,"Rua: Ophir José Braz quadra:10 - Centro, Luziânia - GO, 72800-150",Luziânia,GO,+55 61 3622-1805,3.9,9,-16.2564115,-47.955300099999995,,
72800100,20,Fogão Mineiro,,ChIJiQj7uFGYWZMRUkF6d6NbbEw,"R. do Comércio, 208 - Centro, Luziânia - GO, 72800-010",Luziânia,GO,,4.6,37,-16.2541158,-47.952875299999995,,
72800100,1,Pororokas - Restaurante e Pizzaria em Luziânia,https://pororokas-restaurante-e-pizzaria.negocio.site/,ChIJQcALHFSYWZMRi9iMx4iTr_0,"R. Dr. João Teixeira, Qd 35 - Lt 10 - Centro, Luziânia - GO, 72800-440",Luziânia,GO,+55 61 3622-2819,4.3,816,-16.2533682,-47.9572964,,
72800100,2,Bob's Burgers,https://www.bobs.com.br/,ChIJ0YTIzdeZWZMRxSvBoB_FdFg,"R. Ophir José Braz - Centro, Luziânia - GO, 72800-150",Luziânia,GO,+55 61 98420-0420,4,383,-16.255847199999998,-47.954672599999995,,
72800100,3,Comida da Roça,,ChIJh4JG0riZWZMR7tGHTfNrlfg,"R. Benedito José de Morais, 200-230 - Centro, Luziânia - GO, 72800-620",Luziânia,GO,,2.6,7,-16.250985099999998,-47.951606299999995,,
72800100,4,Comideria,,ChIJiZZFLcOZWZMRXxVPaJ4hpzk,"Dentro do Posto Santa Maria - R. do Comércio, n° 156 - Centro, Luziânia - GO, 72800-010",Luziânia,GO,+55 61 3044-7546,4.4,53,-16.254003,-47.9524419,,
72800100,5,Panelinha Comida Caseira,,ChIJD0z_EqeZWZMR1L6iEpJ2GqI,"R. Americano do Brasil, 57 - Centro, Luziânia - GO, 72800-010",Luziânia,GO,+55 61 99615-1991,4.5,65,-16.2534314,-47.952522599999995,,
72800100,6,Lanches Breakfast,,ChIJGxwd_z-ZWZMRjYLrO99Oghw,"R. Benedito Pimentel, N° 160 - Centro, Luziânia - GO, 72800-550",Luziânia,GO,+55 61 99562-2324,5,1,-16.2527914,-47.9523796,,
72800100,7,Ponto Q,,ChIJ488bJIuZWZMRzA2f1K4R-8I,"R. Americano do Brasil, 191 - Centro, Luziânia - GO, 72800-570",Luziânia,GO,,4.4,180,-16.2525124,-47.9535057,,
72800100,8,Frango Assado Luziânia - Galetos Galvão,,ChIJM1EbIQ2ZWZMR-c6OquuY718,"AV. EZIO CARNEIRO NR184 LOJA - St. Aeroporto, Luziânia - GO, 72800-420",Luziânia,GO,+55 61 99641-0159,5,13,-16.2569239,-47.9572011,,
72800100,9,Gallegos Lanches,,ChIJuZ1OllCYWZMROhxtIYpUnYo,"Rua Ophir José Braz, Lote 8, s/n - Centro, Luziânia - GO, 72800-150",Luziânia,GO,+55 61 3084-2999,4.5,514,-16.256871999999998,-47.9551811,,
72800100,10,Restaurante Fogo e Brasa,https://www.instagram.com/fogoebrasaluziania,ChIJY5rKZVKYWZMRQMlLvSF5jns,"R. Benedito José de Morais, 200-230 - Centro, Luziânia - GO, 72800-620",Luziânia,GO,+55 61 99840-1468,4.4,238,-16.2504881,-47.952362699999995,,
72800100,11,Açaí do Sérgio,,ChIJqelUA1-ZWZMRkH6keUGMuC8,"Tv. Nirson Carneiro Lôbo, 73 - Centro, Luziânia - GO, 72800-040",Luziânia,GO,+55 61 99829-3220,3.2,13,-16.2556799,-47.9555454,,
72800100,12,Salgados,,ChIJV_F-F1GYWZMR0RJ2EW1eKz0,"R. do Comércio, 453 - Centro, Luziânia - GO, 72800-500",Luziânia,GO,,5,6,-16.2548241,-47.9550384,,
72800100,13,Brasa Espetaria,https://instagram.com/brasa.espetaria_?igshid=YmMyMTA2M2Y=,ChIJ-11gzDCZWZMRqVfIsIDG9Us,"R. Dr. Ézio Carneiro, Q 17 - LT 01 - Luziânia, GO, 72801-060",Luziânia,GO,+55 61 99113-1305,4.7,7,-16.2573182,-47.9576085,,
72800100,14,Skina 67,,ChIJvcL_QwGZWZMR0gZ9ChhBkMw,"R. Dr. João Teixeira, Quadra 67 - Centro, Luziânia - GO, 72800-440",Luziânia,GO,+55 61 99837-9724,3.9,267,-16.2510819,-47.9550188,,
72800100,15,"Restaurante, Bar e Lanchonete Aeroporto",,ChIJ0YFhUvqYWZMRQ6LTie1_lcM,"Luziânia, GO",Luziânia,GO,+55 61 99981-9280,4.5,32,-16.2588136,-47.9682801,,
72800100,16,Restaurante e Lanchonete Tempero Mineiro,,ChIJD3iXt1iYWZMRwlkCudk-5wQ,"R. Santana, 698 - St. Fumal, Luziânia - GO, 72801-520",Luziânia,GO,,4.3,10,-16.2632164,-47.9602858,,
72800100,17,Mió Restaurante e Bar - Luziânia,https://instagram.com/miorestauranteebar?igshid=OGQ5ZDc2ODk2ZA==,ChIJHz-HHVCZWZMRq4Zwe_rhLWo,"R. Dr. João Teixeira, Qd. 66 - Lote 14A - Centro, Luziânia - GO, 72800-440",Luziânia,GO,+55 61 98160-9662,4.9,77,-16.2516463,-47.9556575,,
72800100,18,Restaurante Casarão,,ChIJX36-f8yZWZMRJ-ngdxEITkI,"R. do Rosário, 135 - Vila Rosario, Luziânia - GO, 72812-060",Luziânia,GO,+55 61 99999-6719,4.7,308,-16.252179599999998,-47.9480402,,
72800100,19,Quitanda São Judas Tadeu - Centro,,ChIJn6T3KFKYWZMRfJNKWk4lP9o,"R. Americano do Brasil, 191 - Centro, Luziânia - GO, 72800-570",Luziânia,GO,+55 61 3621-4929,4.4,1728,-16.2525162,-47.9534756,,
72800100,20,Petiscaria e Bistrô Malagoli,https://instagram.com/bistromalagoli?utm_medium=copy_link,ChIJ_4BOPkyYWZMRnqzBumhRW5g,"R. do Rosário, 320 - Vila Rosario, Luziânia - GO, 72812-060",Luziânia,GO,+55 61 3622-5042,4.7,570,-16.250278899999998,-47.9479329,,
72800100,1,FIORENZZA,https://www.instagram.com/fiorenzzaluziania/,ChIJlUiOSrCZWZMRWU__BCPkVJI,"R. Padre Domingos, 750 - Centro, Luziânia - GO, 72800-460",Luziânia,GO,+55 61 99638-6237,4.5,2,-16.254957,-47.9562534,,
72800100,2,Restaurante Vitoria - Piquete,https://especialistaof.com/restaurantevitoria/,ChIJLZeoZWyZWZMRbzQ6FApmh9c,"R. Americano do Brasil, 342 - Centro, Luziânia - GO, 72800-570",Luziânia,GO,+55 61 99300-2926,,,-16.2512726,-47.954297399999994,,
72800100,3,EXPRESSO SUSHI,http://www.expressosushi.com.br/,ChIJA6h4_AmbWZMR5W8ilS0v3JM,"R. Padre Domingos, 130 - Quadra 34 Lote 07 - Centro, Luziânia - GO, 72800-460",Luziânia,GO,+55 61 98373-5353,4,6,-16.2545152,-47.9567663,,
72800100,4,Kallifas Café e Cozinha,,ChIJj3VBxFGYWZMRA0PS4nP1I8o,"R. do Comércio, 382-432 - Centro, Luziânia - GO, 72800-010",Luziânia,GO,+55 61 3622-1656,4.4,829,-16.2504836,-47.9543134,,
72800100,5,Otaku Sushi,https://otakusushi.com.br/,ChIJd2b3K7eZWZMRgIv19DQOZc8,"R. Prof. Artur Roriz, 658 - Quadra 16, Lote 8 - St. Aeroporto, Luziânia - GO, 72800-400",Luziânia,GO,+55 61 99205-1416,4.5,83,-16.258319,-47.957097399999995,,
72800100,6,EVS)Espaço Vida Saudável Herbalife Luziânia IVANES,https://www.instagram.com/ivanesherbalife/,ChIJDXrN4RGZWZMRl-xgiTRQorE,"R. Joao Braz, 191 - Centro, Luziânia - GO, 72800-080",Luziânia,GO,+55 61 99948-9453,5,10,-16.2554517,-47.9538684,,
72800100,7,Danny Lanches,,ChIJw9D-IFiYWZMR-BkzFKjLGpo,"St. Aeroporto, Luziânia - GO, 72801-125",Luziânia,GO,,,,-16.2588284,-47.959956,,
72800100,8,Mais Nutri Fitness,,ChIJC-fvpjyZWZMR-TMv9G4O11c,"digo machado de araujo - R. Delfino Roriz, quadra 65 - lote 08 - Diogo Machado Araujo, Luziânia - GO, 72810-050",Luziânia,GO,+55 61 99192-9607,5,46,-16.2511845,-47.957040799999994,,
72800100,9,Kaliffas +,,ChIJ21sNlU2ZWZMRQIK6Q-2_VUg,"Esquina com o Centro Comunitário - R. Dr. João Teixeira, Qd 69 - Lote 32 - Centro, Luziânia - GO, 72800-440",Luziânia,GO,+55 61 3622-1656,3.9,300,-16.2504773,-47.9543664,,
72800100,10,QUIOSK Santa Luzia LANCHONETE,,ChIJd4YclU2YWZMRGvdmS_EJ6nU,"Centro, Luziânia - GO, 72800-650",Luziânia,GO,,,,-16.250512099999998,-47.9504321,,
72800100,11,Rei dos Caldos Petiscaria e Hambúrgueria.,https://rei-dos-caldos-e-petiscaria.negocio.site/?utm_source=gmb&utm_medium=referral,ChIJe_EFc4GZWZMRdXgtOcDHgVU,"R. Santana, 77 - St. Fumal, Luziânia - GO, 72801-520",Luziânia,GO,+55 61 99805-7028,4.7,28,-16.2629318,-47.9585869,,
72800100,12,Kami Sama - Culinária Japonesa,,ChIJqV85TwaZWZMRSNDLqB3AnhA,"R. Benjamin Roriz, QD 20 - Lt 01 - St. Aeroporto, Luziânia - GO, 72801-147",Luziânia,GO,+55 61 99635-4575,5,3,-16.2606927,-47.954697499999995,,
72800100,13,Pamonharia El Shadday,https://www.facebook.com/pg/Pamopastelelshadday/about/?ref=page_internal,ChIJEzuSyFWYWZMRONnZVB4VBHo,"R. Florentino Chaves, 320-454 - Diogo Machado Araujo, Luziânia - GO, 72800-520",Luziânia,GO,+55 61 3621-3745,4.4,541,-16.2531411,-47.959492399999995,,
72800100,14,Restaurante Puro Sabor,https://website-411031781612025636357-restaurant.negocio.site/,ChIJs3t4d5GZWZMRm3wA4shHytQ,"Av. Alfredo Nasser - Vila Juracy, Luziânia - GO, 72800-000",Luziânia,GO,+55 61 3601-3624,4.5,31,-16.2535982,-47.9418935,,
72800100,15,Restaurante E Lanchonete Da Maura,,ChIJ684enbSZWZMRuh6gAELuu4c,"Av. Sara Kubitschek, 6 - qd 5 LT - Parque Jk, Luziânia - GO",Luziânia,GO,+55 61 99633-5467,5,1,-16.2448899,-47.946892299999995,,
72800100,16,Restaurante Sabor Goiano,http://restaurantesaborgoiano.negocio.site/,ChIJCWYnI12YWZMRQMszqiu4nUQ,"R. Plácido de Paiva, 530-568 - St. Fumal, Luziânia - GO, 72801-670",Luziânia,GO,+55 61 99261-5258,4.4,50,-16.267298999999998,-47.9525484,,
72800100,17,Subway Luziânia,http://www.subway.com/,ChIJkSD_9jqZWZMRCxkbZlPYggg,"Quadra 18 Lote: 1A N° s/n Loja 01D Vila Juracy - Centro, Luziânia - GO, 72803-010",Luziânia,GO,+55 61 99699-2647,4.2,221,-16.2527631,-47.9426047,,
72800100,18,Antigamente na Lenha,,ChIJy0T07UyYWZMR0deK7B1zv1s,"R. do Rosário, 517 - Vila Rosario, Luziânia - GO, 72812-060",Luziânia,GO,+55 61 98369-6097,4.2,100,-16.2483702,-47.9481074,,
72800100,19,Restaurante Wesley Negão,,ChIJYemCaLqZWZMRLhcyIEim1cI,"St. Norte, Luziânia - GO, 72812-565",Luziânia,GO,,5,1,-16.2362935,-47.9484135,,
72800100,20,Simpsons Restaurante,,ChIJiRt5QD-YWZMRAG8P5uROatQ,"Av. Tiradentes - Vila Roriz, Luziânia - GO",Luziânia,GO,,5,1,-16.2600086,-47.940368199999995,,
72800100,1,Pizzaria e Restaurante Shalom,https://www.instagram.com/pizzariashalomlza/,ChIJnxOw_bKZWZMRXv71UTOZ3QM,"Av. Júlio Meireles, Qd 56 - Lote 20 - Diogo Machado, Luziânia - GO, 72810-170",Luziânia,GO,+55 61 99808-5070,5,1,-16.2521041,-47.9607281,,
72800100,2,Jántinha do itamon,,ChIJv3u0gGGZWZMR0vh-HVorNZA,"Praça Joaquim José Rodrigues - Diogo Machado Araujo, Luziânia - GO, 72800-000",Luziânia,GO,+55 61 99812-3041,,,-16.251568799999998,-47.9623905,,
72800100,3,Outbêco - Luziânia,https://www.instagram.com/outbeco_luziania/?__coig_restricted=1,ChIJf6dTIj6ZWZMR4nbUiXYm7QU,"Av. Santa Maria, Quadra 28 - Lote 9 - St. Aeroporto, Luziânia - GO, 72801-020",Luziânia,GO,+55 61 99918-6070,4.2,52,-16.2561209,-47.960805699999995,,
72800100,4,Churrascaria e Choperia Casa Amarela,,ChIJIYbFPpuZWZMRa7N7ScvihB0,"Av. Jovêntino Rodrigues - Santa Luzia, Luziânia - GO, 72803-010",Luziânia,GO,,,,-16.2530341,-47.9447289,,
72800100,5,Lanchonete Cantinho Da Codorna,,ChIJl_HmI1GYWZMRV8xS-nt5UT4,"Centro, Luziânia - GO, 72800-460",Luziânia,GO,,,,-16.255188,-47.9554669,,
72800100,6,Companhia do Caldo,,ChIJ9aKxF5uZWZMRAd-HcZRro6Q,"R. Dr. João Teixeira, 785 - Centro, Luziânia - GO, 72800-440",Luziânia,GO,+55 61 99588-1953,4.3,37,-16.2526553,-47.9564713,,
72800100,7,Top Lanches - Luziânia Centro,,ChIJubsAx7CZWZMR0D2NiabpcMQ,"R. do Comércio, 49 - Centro, Luziânia - GO, 72800-010",Luziânia,GO,+55 61 99253-8905,5,5,-16.2541472,-47.9513404,,
72800100,8,Empório Caipira - Comida Caseira e Produtos Caipira,,ChIJI1BNGryZWZMRg5Urkkw5Aqs,"R. José Franco Pímentel, 183 - Qd 73 Lt 07 - Centro, Luziânia - GO, 72800-500",Luziânia,GO,+55 61 99643-0637,,,-16.253809999999998,-47.9553854,,
72800100,9,Restaurante Lanchonete Santo Tempero,,ChIJdcODQySYWZMR3tP6n5GYZts,"Parque Estrela Dalva I, Luziânia - GO, 72804-050",Luziânia,GO,,3,4,-16.2545441,-47.928432199999996,,
72800100,10,Cachorro Quente do Jair,,ChIJz6Y4J42ZWZMRM42PIN93Uc8,"R. Dr. João Teixeira - Centro, Luziânia - GO, 72800-460",Luziânia,GO,+55 61 99181-8668,5,1,-16.252953299999998,-47.9572394,,
72800100,11,Tempero e Sabor Restaurante e Lanchonete,https://www.instagram.com/temperoesabor.restaurante/?hl=pt-br,ChIJV0Mad1CZWZMRJTaYMS8ABL0,"Posto São Cristóvão - BR-040, Km 21 - Parque Santa Fé, Luziânia - GO, 72834-170",Luziânia,GO,+55 61 99855-3594,5,1,-16.2506531,-47.9261142,,
72800100,12,Hamburgeria Filadélfia,,ChIJLRorGemZWZMRzKzlhp9PMIw,"Rua Dr° João Teixeira Qd 02 Lote 10 n° 772, Sala 02 - Centro, Luziânia - GO, 72800-440",Luziânia,GO,+55 61 99824-7711,4.3,112,-16.2516419,-47.9553473,,
72800100,13,Restaurante e Pizzaria Roda Pizza,https://roda-pizza.negocio.site/,ChIJAQAA6E6YWZMRG7S8qMnyA8s,"Av. Mal. Floriano, Quadra 14 - Lote 3 - Centro, Luziânia - GO, 72803-040",Luziânia,GO,+55 61 3622-1017,4.3,1344,-16.2541322,-47.946183399999995,,
72800100,14,Espetinho do fernandinho,,ChIJBRPJWVOYWZMRaRwJ_VlWVcM,"R. Delfino Roriz, 252 - Diogo Machado Araujo, Luziânia - GO, 72810-050",Luziânia,GO,,4,13,-16.2492516,-47.95624,,
72800100,15,Vitória Lanches,,ChIJ8cDQkFOYWZMRvjwivoGGMaE,"R. Henrique Meireles, Quadra 66 Lote 1 N 636 - Luziânia, GO, 72810-090",Luziânia,GO,+55 61 99500-2785,4.4,19,-16.2515494,-47.9555797,,
72800100,16,HOPS CHOPP,,ChIJf46TE1SZWZMR90xAOvwMp6E,"área especial 1 - Alameda Santa Maria, lote 5 número 444 - St. Aeroporto, Luziânia - GO, 72801-020",Luziânia,GO,+55 61 99864-4538,4.6,152,-16.259342699999998,-47.958408,,
72800100,17,Croasonho Luziânia,,ChIJzwnr8VuZWZMRfOLbxuEUEzQ,"Av. Marginal, B - Quadra 18 Lote 1A - Vila Juracy, Luziânia - GO, 72813-970",Luziânia,GO,+55 61 98596-3732,,,-16.2534188,-47.939163699999995,,
72800100,18,brotherscakes,,ChIJ724efhWZWZMRwT8kVNIGtlI,"Rua Elizeu de Melo - St. Fumal, Luziânia - GO, 72801-570",Luziânia,GO,+55 61 99996-2164,,,-16.2646388,-47.9539501,,
72800100,19,Burger King,https://www.burgerking.com.br/?utm_source=google&utm_medium=maps&utm_campaign=mirum-28418,ChIJi2jV_TGZWZMREM4xMxuKpYg,"Praça Raimundo de Araújo Melo - Centro, Luziânia - GO, 72800-620",Luziânia,GO,,4.3,560,-16.2506138,-47.9518888,,
72800100,20,Hambúrgueria Luziânia - DOGSTER,https://dogsterburgeredog.alfalabs.com.br/,ChIJte6V_HGZWZMR_oeCc53URII,"R. Dr. João Teixeira, 86 - Centro, Luziânia - GO, 72800-440",Luziânia,GO,+55 61 99817-7278,4.9,55,-16.2492232,-47.952534299999996,,
72800100,1,Restaurante mais sabor,,ChIJKTPSxCGZWZMRUqXxUJvDAss,"Av. Goiânia, 11 - São Caetano, Luziânia - GO, 72805-430",Luziânia,GO,,5,1,-16.2589906,-47.9301331,,
72800100,2,Tenda Bambu,,ChIJGfow7VOYWZMR466wFxT-c4o,"R. Dr. João Teixeira, 683 - Centro, Luziânia - GO, 72810-210",Luziânia,GO,,,,-16.2520705,-47.9557356,,
72800100,3,Cozinha Caipira - Restaurante em Luziânia,https://instagram.com/restaurante_cozinhacaipira?igshid=NjIwNzIyMDk2Mg==,ChIJ8dI5NDmZWZMRrmWUnY1fkKo,"Avenida Dona, Av. Sara Kubitschek, Quadra 42 - Lote 24 - Parque Jk, Luziânia - GO, 72815-450",Luziânia,GO,,4.7,243,-16.2351805,-47.9415534,,
72800100,4,Bill's Burguers,,ChIJ57okZkeZWZMRo2l0uszduVI,"R. Benjamin Roriz, 194 - Diogo Machado Araujo, Luziânia - GO, 72800-380",Luziânia,GO,+55 61 99878-7844,,,-16.2539271,-47.9589047,,
72800100,5,Wallace Lanches,,ChIJq22bHlSYWZMRxxXsDIoHiZg,"R. Dr. João Teixeira, 707-749 - Centro, Luziânia - GO, 72800-440",Luziânia,GO,+55 61 3622-4049,4.2,206,-16.2535176,-47.9574516,,
72800100,6,Point do Açaí - Luziânia,https://pointdoacai.alfalabs.com.br/,ChIJ7QY6ylaYWZMR-ROhs8lfGPc,"R. Padre Domingos, 108 - Centro, Luziânia - GO, 72800-460",Luziânia,GO,+55 61 3084-2200,4.6,1165,-16.2545948,-47.9566334,,
72800100,7,Bão Pastel,https://mechamenozap.com.br/baopastel/,ChIJiQ4-YGCZWZMRU10gckr9KcM,"R. Padre Domingos, QD 34 - LT 07 LJ 02 - Centro, Luziânia - GO, 72800-460",Luziânia,GO,+55 61 99692-0683,4.7,107,-16.254074199999998,-47.9571651,,
72800100,8,MG Biscoitos Caseiros,,ChIJlcbLz32ZWZMRCBogZbpj9JU,"R. Independência, s/n - Qd. 10, LT. 17 - St. Pres. Kennedy, Luziânia - GO, 72810-570",Luziânia,GO,+55 61 3622-2586,4.8,33,-16.2456978,-47.9562014,,
72800100,9,RESTAURANTE ROMA,,ChIJHW70fYiXWZMRVZXx_IO1Kbk,"R. José Bonifácio, Qd 22 - Lt 01 - Parque Estrela Dalva I, Luziânia - GO, 72804-270",Luziânia,GO,+55 61 3622-3891,4.5,366,-16.2494616,-47.9193676,,
72800100,10,restaurante maria pimenta,,ChIJvbBYHCEzWpMRK4R55dQ1V8w,"Travessa Três Bicas, 22 - Centro, Luziânia - GO, 72810-010",Luziânia,GO,+55 61 3562-5836,,,-16.2513491,-47.952805,,
72800100,11,Restaurante tempero Baiano,,ChIJzdUaZUqZWZMR3nbDYrXkKRI,"Av. Brasil - St. Leste, Luziânia - GO, 72803-510",Luziânia,GO,+55 61 99969-7218,4.9,14,-16.2595737,-47.929779499999995,,
72800100,12,Pai & Filha Restaurante e Jantinha,,ChIJZbACbuSZWZMR5SWgssaTnGY,"Av. Sara Kubitschek, Quadra 58 - Lote 23 - Parque Jk, Luziânia - GO, 72815-450",Luziânia,GO,+55 61 99198-0545,,,-16.237215799999998,-47.9423921,,
72800100,13,Restaurante 3 Irmãos,,ChIJ_4gd5oeXWZMRHI1lbuVCoLk,"Av. Alfredo Nasser, 2183-2445 - 2183-2445 - Parque Estrela Dalva I, Luziânia - GO, 72814-510",Luziânia,GO,+55 61 3621-4354,4.5,785,-16.2488795,-47.920841599999996,,
72800100,14,Restaurante Comida da Roça,https://www.instagram.com/comidadarocaluz/,ChIJoa14ze2XWZMRMEztE2hDFwU,"Av. Alfredo Nasser, Quadra 02 - lote 09 - Parque Estrela Dalva I, Luziânia - GO, 72814-510",Luziânia,GO,+55 61 99328-9461,4.6,209,-16.2491162,-47.921583399999996,,
72800100,15,Restaurante Lemos,,ChIJW8eCY5eXWZMRdyQoYttA-XU,"Parque Estrela Dalva III, Luziânia - GO, 72831-020",Luziânia,GO,,,,-16.2459544,-47.9052869,,
72800100,16,Santo Pastel,,ChIJRSBlYFGYWZMR2XCjuTCVKog,"R. Jk Qd4 lt16, N°155 - St. Pres. Kennedy, Luziânia - GO, 72810-600",Luziânia,GO,+55 61 99396-6788,4.6,634,-16.2480778,-47.960765099999996,,
72800100,17,Bistrô da Fran,,ChIJrToW73aXWZMRmlbU8mDPIKY,"Rua 57 Qd 331 Lt 16 casa 1 - Parque Estrela Dalva IV, Luziânia - GO, 72821-520",Luziânia,GO,+55 61 99974-3551,4.3,31,-16.262633,-47.913556199999995,,
72800100,18,Leandro Restaurante,https://www.facebook.com/leandrorestbar/,ChIJeelqAi6XWZMR-pXIzQtktqQ,"Av. Alfredo Nasser, QD 02 - Lote 02 - St. Mandu II, Luziânia - GO, 72800-500",Luziânia,GO,+55 61 98474-8361,4.1,517,-16.2489327,-47.921015499999996,,
72800100,19,Restaurante Dois Irmãos,,ChIJjbGhZpeXWZMRVhvp5Xbrquw,"BR-040 - Parque Estrela Dalva III, Luziânia - GO, 72831-020",Luziânia,GO,,4.1,11,-16.245889599999998,-47.9050823,,
72800100,20,Açaí & Cia,,ChIJGVrg9XOZWZMRS3SWNQSaamU,"R. Padre Domingos, Qd 34, Lt 07-N° 130, Lj 1B - Centro, Luziânia - GO, 72800-380",Luziânia,GO,+55 61 99624-9428,4.6,99,-16.254512,-47.9567669,,
72800100,1,Churrascaria Nostra Carne,,ChIJS-gAwZmXWZMRa7ytTRC_r4E,"R. Nataniel Dantas, 1-251 - Parque Estrela Dalva III, Luziânia - GO, 72831-020",Luziânia,GO,+55 61 3620-1919,3.9,753,-16.2446972,-47.905507199999995,,
72800100,2,Silva,,ChIJJz02S8WZWZMRwtmFQlImBBg,"Travessa Emanuel roriz, 125 - Centro, Luziânia - GO, 72800-480",Luziânia,GO,+55 61 98359-5188,,,-16.2542081,-47.9565561,,
72800100,3,Piratas Grill Food Truck,https://instagram.com/piratasgrillfoodtruck?utm_medium=copy_link,ChIJgcUd1BmZWZMRQx5izsEhaHQ,"R. Benjamin Roriz, 118 - Diogo Machado Araujo, Luziânia - GO, 72801-013",Luziânia,GO,+55 61 98276-7326,4.8,74,-16.2534451,-47.959340499999996,,
72800100,4,Recanto Do Sabor,https://recanto-do-sabor-luiziania.negocio.site/?utm_source=gmb&utm_medium=referral,ChIJfxVz_k2YWZMRGiVPfcU6LOc,"lote 20,Qd 46, R. Fagundes Varela - Parque Estrela Dalva, Luziânia - GO, 72804-190",Luziânia,GO,+55 61 99601-1974,4.4,515,-16.2506696,-47.9211805,,
72800100,5,Restaurante Dom Felipe,,ChIJ4fVYtLyZWZMRT40R7BiCl_g,"Av. Miguel Reale, Quadra 42 - Lote 02 - Parque Estrela Dalva I, Luziânia - GO, 72804-170",Luziânia,GO,+55 61 99129-4222,,,-16.2534815,-47.921826599999996,,
72800100,6,No Fogo Gastronomia,,ChIJ-8rvdBuXWZMRvphf0Ftuliw,"Rua 3 Quadra 17 casa 15 - Parque Estrela Dalva VII, Luziânia - GO, 72830-040",Luziânia,GO,+55 61 99858-2447,4.5,26,-16.2456994,-47.916956299999995,,
72800100,7,D’Kasa Burguer Luziânia,,ChIJL6f7ZgyZWZMR9Lty0oZPiKk,"R. Moisés Machado, 13A - St. Viegas, Luziânia - GO, 72810-180",Luziânia,GO,+55 61 99648-0788,5,3,-16.2519083,-47.9613659,,
72800100,8,Restaurante Lanchonete Santo Tempero,,ChIJW0JLY5eXWZMRo3TDT-HWOWY,"Parque Estrela Dalva III, Luziânia - GO, 72831-020",Luziânia,GO,,,,-16.2458922,-47.9051319,,
72800100,9,Fábio Lanches,,ChIJxb9On7eZWZMRHk-ApkHt7rY,"R. Dr. João Teixeira, 760 - Loja 1 - Centro, Luziânia - GO, 72800-440",Luziânia,GO,+55 61 3621-4491,4.4,97,-16.2521766,-47.956333699999995,,
72800100,10,Restaurante do Bem (Estrela Dalva) -OVG,,ChIJI-viBgmXWZMR9LXkI4MpkAM,"Av. Alfredo Nasser, 1281 - PED VII, Luziânia - GO, 72820-020",Luziânia,GO,,4.5,2,-16.2475934,-47.9165329,,
72800100,11,Hamburgueria Gold Burguer,,ChIJqTN65-yZWZMRHJVP5QG4o0g,"R. Guanabara, 1A - St. Pres. Kennedy, Luziânia - GO, 72810-590",Luziânia,GO,+55 61 99456-0398,1.7,3,-16.245815699999998,-47.960181999999996,,
72800100,12,Acai E Din Din Gourmet,,ChIJ8WkHWlGYWZMR1UnRxpkONZ0,"R. José Franco Pímentel, 126 - Centro, Luziânia - GO, 72800-500",Luziânia,GO,,5,1,-16.2535775,-47.955849699999995,,
72800100,13,Restaurante e Conveniência Tempero e sabor,,ChIJhyRFAReXWZMRYC1lfcxEQJE,"BR-040, 21 - Jardim Luzilia, Luziânia - GO, 72834",Luziânia,GO,,4.7,10,-16.2222799,-47.9158441,,
72800100,14,Restaurante Comunitário de Luziânia,,ChIJOXpP4oWXWZMRh4VbZXVpjOg,"1535,, Av. Alfredo Nasser, 1281, Luziânia - GO, 72820-020",Luziânia,GO,,4.4,254,-16.247655299999998,-47.9167115,,
72800100,15,Casa Das Cores,,ChIJjVObbFeYWZMRls5tApkIOZ4,"R. Dr. Ézio Carneiro, 239 - St. Aeroporto, Luziânia - GO, 72801-060",Luziânia,GO,,,,-16.2574154,-47.9580269,,
72800100,16,Blend Burger,https://instagram.com/blendburger_?igshid=OGQ5ZDc2ODk2ZA==,ChIJXcgVfsOZWZMR7ZCgybF22mk,"R. Dr. João Teixeira - Centro, Luziânia - GO, 72801-013",Luziânia,GO,+55 61 99677-8917,4.7,3,-16.2514722,-47.9554851,,
72800100,17,Restaurante 3 Amigos Disk Marmitex,,ChIJYU2gM0mYWZMRmeT4KXdvruc,"Vila Rosario, Luziânia - GO, 72812-040",Luziânia,GO,,,,-16.25244,-47.9463965,,
72800100,18,Frangos Caixeta,,ChIJMeMryxmZWZMRzaywUlxQ5_k,"Av. Santa Maria - St. Aeroporto, Luziânia - GO, 72801-010",Luziânia,GO,,,,-16.2601865,-47.958235099999996,,
72800100,19,Gulla's Burguer,,ChIJn1wFrYGZWZMRPKh0Vrpk28I,"Av. Sara Kubitschek - Parque Jk, Luziânia - GO, 72815-450",Luziânia,GO,+55 61 99650-1121,5,2,-16.2361306,-47.941931399999994,,
72800100,20,Costela Restaurante bar,,ChIJ8V18ESSZWZMR5L_0ZorHqcQ,"Av. Alfredo Nasser, Quadra 02 - Lote 12 - Parque Estrela Dalva I, Luziânia - GO, 72814-510",Luziânia,GO,+55 61 99317-6330,,,-16.2493674,-47.9227311,,
72800100,2,Boys's Jofre Parada,,ChIJpZzjhlSZWZMRL_tsL5T5ouc,"R. Luziânia, 99-1 - Luziânia, GO, 72858-150",Luziânia,GO,+55 61 99453-3633,4.5,6,-16.2475961,-47.961501999999996,,
72800100,3,Restaurante frango e cia,,ChIJY7hkqr2XWZMR6AZOidlN9Do,"R. Rubéns Braga, qd 99 - lt 01 - Luziânia, GO, 72801-010",Luziânia,GO,+55 61 98317-6925,4.8,8,-16.2536863,-47.909357,,
72800100,4,Restaurante E Hamburgueria Decio's Carne De Sol,,ChIJBVxa-02YWZMRUpVhOMfhOaQ,"rua nelson braga n 20 casa 02 centro cep 72800650, Luziânia - GO",Luziânia,GO,,,,-16.251694699999998,-47.9509721,,
72800100,5,Restaurante Sabor Do Campo,,ChIJ5fzDN2WXWZMRxt96jxgvg8g,"R. 5 - Jardim Luzilia, Luziânia - GO, 72801-010",Luziânia,GO,+55 61 3620-6936,5,8,-16.2205724,-47.9155594,,
72800100,6,MG Lanches Lanchinho do Manel,,ChIJkWWiW1WYWZMRcUZbkkA8Z6I,"Diogo Machado Araujo, Luziânia - GO, 72810-160",Luziânia,GO,+55 61 3621-4840,4.5,184,-16.2505021,-47.9609691,,
72800100,7,Bar e Lanchonete do Fazendeiro,,ChIJa81D5E2YWZMRgFixckMoAfM,"Rua Coronel Antônio Carneiro, 11 - Centro, Luziânia - GO, 72800-200",Luziânia,GO,,5,1,-16.2516159,-47.950680899999995,,
72800100,8,Restaurante Sabor do Campo,,ChIJD895CpGbWZMR2xkU5VqDERE,"BR-040, Qd 15 - Lt 35 - Luzilia Parque, Luziânia - GO, 72804-970",Luziânia,GO,+55 61 3620-6936,4.5,4,-16.2283291,-47.913204799999995,,
72800100,9,Restaurante Da Hora,,ChIJr1B-XZiXWZMRgoUoGiWIjhk,"R. Maria Helena Cardoso, 204 - lote 20 - Parque Estrela Dalva III, Luziânia - GO, 72831-060",Luziânia,GO,+55 61 3620-2893,4.4,64,-16.2433065,-47.9032814,,
72800100,10,Restaurante e Hamburgueria Horizonte,,ChIJqbQTbJCXWZMRn3gVbtrtiT0,"Rua Prof Baltazar - Luziânia, GO, 72831-380",Luziânia,GO,+55 61 3620-1072,4.3,16,-16.2404942,-47.9010398,,
72800100,11,Sereia Gelattos Açaiteria,https://instagram.com/sereiagelattosacaiteria?igshid=YmJhNjkzNzY=,ChIJodM2NcmbWZMRwlas9ArML00,"R. Santana, QD 77 - LT 21 - St. Fumal, Luziânia - GO, 72801-520",Luziânia,GO,+55 61 99104-6317,,,-16.2629292,-47.9585867,,
72800100,12,Koresawa Sushi Bar,https://www.instagram.com/koresawa.sushibar/,ChIJt0F_FcGZWZMRsFGCDCnwDlc,"Mandú II - R. Claro Carneiro de Mendonça - St. Mandu II, Luziânia - GO, 72814-520",Luziânia,GO,+55 61 99695-5758,5,38,-16.2494467,-47.9251316,,
72800100,13,Cantinho do sabor,https://website-7255528380136569931238-restaurant.negocio.site/?utm_source=gmb&utm_medium=referral,ChIJwUINLUuZWZMRPHyVnp_VfRo,"R. Vinte e Dois, Quadra 103 - Lote 31 - Parque Alvorada I, Luziânia - GO, 72836-350",Luziânia,GO,+55 61 98540-7596,4.9,33,-16.2107074,-47.930106599999995,,
72800100,14,Panificadora Pérola,,ChIJu_UROfWZWZMRZMXH-gbdW0o,"R. Pérola - Luziânia, GO, 72811-370",Luziânia,GO,+55 61 99525-6688,4.8,27,-16.2448683,-47.964552399999995,,
72800100,15,Pastelaria Kital,,ChIJCTmWkL-ZWZMRuXyOfs5uhc8,"Rua Nelson Aguiar - Diogo Machado Araujo, Luziânia - GO, 72811-010",Luziânia,GO,+55 61 99989-7450,4.7,45,-16.2503481,-47.9613012,,
72800100,16,Boss Fast Food,,ChIJW-mfibWZWZMR2IGiH6ZOdU0,"R. Alfredo Machado, Qd 51 - Loja 13 - Centro, Luziânia - GO, 72810-150",Luziânia,GO,+55 61 3622-8153,,,-16.2533453,-47.9599295,,
72800100,17,Daniel Eventos,,ChIJBzxZhY2XWZMRjVquA0sv5vU,"265, R. Santiago Dantas, 1 - Parque Estrela Dalva II, Luziânia - GO, 72820-120",Luziânia,GO,+55 61 99116-3225,4.2,93,-16.253945299999998,-47.9128088,,
72800100,18,Francisco das Chagas Rodrigues Restaurante,,ChIJkexgN4GXWZMRx1mWUq-zGeg,"Av. 10, 54 - Parque Estrela Dalva, Luziânia - GO",Luziânia,GO,,3,2,-16.2435765,-47.918337,,
72800100,19,Restaurante Comida Caseira,,ChIJszxX3O6bWZMRCqbiOc7-7Fk,"Jardim do Inga, Luziânia - GO, 72850-060",Luziânia,GO,+55 61 99458-5861,4.3,15,-16.1550995,-47.956460899999996,,
72800100,20,Ryan and Bryadens KFC,,ChIJs_DM-c2ZWZMR8PacdvlVQ78,"St. Mandu II, Luziânia - GO, 72814-800",Luziânia,GO,,,,-16.24776,-47.931238,,
72800100,1,Disk Marmitex M.M,https://disk-marmitex-m-m.ueniweb.com/?utm_campaign=gmb,ChIJfcJW06mXWZMRnqgsNiOV6uo,"R. Nataniel Dantas - Parque Estrela Dalva III, Luziânia - GO, 72831-020",Luziânia,GO,+55 61 98583-5668,,,-16.2423937,-47.9070063,,
72800100,2,Pizza fubaum,,ChIJ07qWqDmHWZMRpp2mXjd8Qc0,"Travessa Três Bicas, 22 - Centro, Luziânia - GO, 72810-010",Luziânia,GO,+55 61 3629-0363,,,-16.2513491,-47.952805,,
72800100,3,Hangar 5B Hamburgueria - Delivery,,ChIJ4duEfcWZWZMR1_gMV22m6X4,"Avenida Aeroporto - St. Aeroporto, Luziânia - GO, 72801-040",Luziânia,GO,+55 61 3084-2622,5,1,-16.264365299999998,-47.962612899999996,,
72800100,4,Artesanal Burgers,,ChIJtS4gcjKZWZMRWelKua0pSsk,"R. Manoel Roriz, quadra 3 lote 3 sala 2 - Centro, Luziânia - GO, 72800-480",Luziânia,GO,+55 61 99203-6659,5,3,-16.252883399999998,-47.9458785,,
72800100,5,"Empório - Pizzaria, Choperia e Restaurante",,ChIJN22sW1yXWZMRRGM7Wbf-lyo,"R. Aníbal Machado, 71 - Parque Estrela Dalva III, Luziânia - GO, 72831-080",Luziânia,GO,+55 61 99901-6330,4.3,8,-16.241837399999998,-47.9022533,,
72800100,6,Restaurante e pizzaria meu sabor,,ChIJbVnjQVObWZMRDthaFQcwmRQ,"R. 210, quadra 257 - lote 18 casa 02 - Jardim do Inga, Luziânia - GO, 72853-257",Luziânia,GO,+55 61 99811-9971,5,1,-16.1547433,-47.9589862,,
72800100,7,Mj MARMITEX,,ChIJ_cqdmSqbWZMRaeD99Dd0JBI,"Parque, 13A - Sol Nascente, Luziânia - GO, 72855-805",Luziânia,GO,+55 61 99400-9438,4,4,-16.1797994,-47.930307199999994,,
72800100,8,CRYSS RESTAURANTE E PAMONHARIA,,ChIJKXhqkoqXWZMRKHLhBf0J4OI,"R. Ataúlfo Alves - Parque Estrela Dalva I, Luziânia - GO, 72804-290",Luziânia,GO,,,,-16.2570861,-47.9208545,,
72800100,9,Restaurante Cantinho Mineiro,,ChIJbxYkIgeaWZMR4IyTG3ACSYQ,"Rod Br. 040. Km. 19 Qd 118 1 - Jardim do Inga, Luziânia - GO",Luziânia,GO,,3.6,24,-16.1973679,-47.923961899999995,,
72800100,10,Restaurante Sabor Caseiro,,ChIJHbClPdiEWZMRBaH-_kbpBCk,"R. Amazonas, Qd.02 - Lt.14 - Jardim Jockey Club, Luziânia - GO, 72850-735",Luziânia,GO,+55 61 99430-3038,4.4,64,-16.1270353,-47.9627209,,
72800100,11,Restaurante Cantinho Mineiro,,ChIJR_EfA8-aWZMRBd97vjI4POY,"BR-040, Km 20, Quadra 118, Rua L-13, 14 - Jardim Ingar, Luziânia - GO, 74630-300",Luziânia,GO,+55 61 3623-1014,4.4,549,-16.1409645,-47.9484863,,
72800140,20,Giraffas,https://www.giraffas.com.br/,ChIJtd2lkVOYWZMRK4x10RVbOnQ,"R. Benedito Pimentel, 63 - Centro, Luziânia - GO, 72800-550",Luziânia,GO,,4.1,12,-16.2524636,-47.9514536,,
72800200,20,El Toro Burger,https://eltoroburger.ueniweb.com/?utm_campaign=gmb,ChIJVbGPbNCZWZMRA2E9AtrcrPs,"R. José de Melo, Sn - Centro, Luziânia - GO, 72800-220",Luziânia,GO,+55 61 98361-7078,,,-16.2571293,-47.9496417,,
72800285,3,Naires Cozinha e Bar,,ChIJV6kAhgSZWZMR2iJwMelNI0k,"Rua Doutor Ézio Carneiro - Setor Aeroporto, Luziânia - GO, 72820-000",Luziânia,GO,+55 61 99120-2126,5,1,-16.2702703,-47.9566622,,
72800380,1,Hunger Fit,http://www.hungerfitt.com.br/,ChIJq1Ko3juZWZMRuA_AfXk-UVU,"R. Cônego Delfino, Quadra 46 - Lote 11 - Diogo Machado Araujo, Luziânia - GO, 72810-240",Luziânia,GO,+55 61 99622-2123,,,-16.2539621,-47.962301,,
72800380,4,Emporio Do Pao De Queijo,,ChIJ-5lMMf6YWZMRFO4ZgpvZj0g,"Rua Nelson Aguiar, 2 - Vila Santa Luzia, Luziânia - GO, 72811-010",Luziânia,GO,,,,-16.251534499999998,-47.9642292,,
72800380,20,Frango no Pote,https://frangonopote.com.br/,ChIJHQ9s3qCZWZMRLwcy99h4Oz4,"R. Dr. João Teixeira, 72 - Loja 1 e 2 - Centro, Luziânia - GO, 72800-440",Luziânia,GO,+55 61 99414-9800,4.4,82,-16.2514976,-47.955158999999995,,
72800400,8,ESPETINHO DO FARINHA,,ChIJZT5IMlmYWZMRk0NbxRS8JMk,"St. Fumal, Luziânia - GO, 72801-520",Luziânia,GO,,,,-16.263016699999998,-47.958194299999995,,
72800570,16,Lanchonete Naturalli's,,ChIJ37bS4k2YWZMRqWCOykyo7DQ,"R. Benedito José de Morais, 50 - Diogo Machado Araujo, Luziânia - GO, 72810-010",Luziânia,GO,+55 61 99962-8899,4.8,5,-16.251462,-47.9511421,,
72800610,16,BINBURGER,,ChIJdXSD-U-ZWZMRwkEkxJpc7lI,"R. Paraná, QUADRA 5 - CASA 4 - Luziânia, GO, 72810-520",Luziânia,GO,+55 61 99919-9664,,,-16.2480209,-47.9602783,,
72800635,8,Marquinhos Lanches,,ChIJc80d702YWZMR5ywl0PXIocY,"Centro, Luziânia - GO, 72800-650",Luziânia,GO,,,,-16.2512194,-47.950680999999996,,
72800690,13,Sandro's Lanches,,ChIJ4Zivb7qZWZMRwJrWJ7XoGFE,"Rua 27 - Centro, Luziânia - GO, 72800-970",Luziânia,GO,,4.6,12,-16.2365946,-47.9482613,,
72800700,17,LANCHES CAFE,,ChIJ6_9DU06YWZMR37l_i7XtUJ4,"Centro, Luziânia - GO, 72800-700",Luziânia,GO,,,,-16.2538895,-47.9491601,,
72800710,20,Lanchonete Honda,,ChIJHQg-QsOZWZMRaFybV-sHRjs,"Avenida Joventino Rodrigues. Quadra: B Lote: 07 - Santa Luzia, Luziânia - GO, 72803-010",Luziânia,GO,+55 61 99227-9490,5,3,-16.2534326,-47.9462358,,
72800991,4,Quintal da Dona Cleide,https://instagram.com/quintal_da_donacleide?igshid=OGQ5ZDc2ODk2ZA==,ChIJAwZ2_VOXWZMRimLA-ktXUKM,"Rua 13 quadra, 92 - lote 16/17 - Parque santa fe, Luziânia - GO, 72834-100",Luziânia,GO,+55 61 98301-6932,5,7,-16.2211918,-47.9212231,,
72800991,8,Marcos Lanches,https://www.foodbooking.com/ordering/restaurant/menu?company_uid=0cb4b825-a191-46f8-805f-bc0e7a57e2e1&restaurant_uid=c6303b70-270d-4796-a399-e8e4119bbad7&facebook=true,ChIJ0_uJqN2XWZMR30OzzjB7f4I,"Rua 9 quadra 46 lote 38 parque - Jardim Luzilia, Luziânia - GO, 72834-140",Luziânia,GO,+55 61 99328-4818,4.7,6,-16.223847,-47.9176265,,
72800991,9,Vila Guará Pizza & Burguer,,ChIJdSL7V2aXWZMRpU4ZlEZT1Fo,"Av. Perimetral, quadra 36 - loja 3 - Vila Guara, Luziânia - GO, 72835-010",Luziânia,GO,+55 61 3620-4521,4.8,39,-16.2225006,-47.9142848,,
72800991,13,Villas lanches e acai,,ChIJgYZ1iDmXWZMRNOfXxbEg7To,"Av. Perimetral, quadra 36 - Jardim Luzilia, Luziânia - GO, 72835-010",Luziânia,GO,+55 61 98183-8864,,,-16.222171799999998,-47.9144073,,
72800991,16,Panificadora Luzilia,,ChIJO_M5xL2XWZMR7RzoKBDjkkM,"R. 8, 860 - Jardim Luzilia, Luziânia - GO, 72834",Luziânia,GO,,4.4,14,-16.2279226,-47.916464,,
72800991,7,IMPÉRIO DOS FRANGOS _ MELHOR FRANGO DE LUZIÂNIA,,ChIJVYMYoXqXWZMR2B2FKbRdWWc,"Av. Alfredo Nasser, 1405 - Parque Estrela Dalva II, Luziânia - GO, 72820-020",Luziânia,GO,+55 61 3622-6439,4.2,51,-16.2479014,-47.9174924,,
72800991,9,VILLA'S BAR E PETISCARIA,,ChIJUfAz11GXWZMRaZFhdn0tRU8,"R. 10 - Vila Guara, Luziânia - GO, 72835-310",Luziânia,GO,+55 61 99332-1420,4.9,14,-16.2147044,-47.9139245,,
72800991,11,"Churrasquinho do Gaúcho Av, Alfredo Nasser Luziânoa GO",,ChIJG3Cv3-SZWZMR4viepANjxCE,"Av. Alfredo Nasser - Luziânia, GO, 72814-090",Luziânia,GO,,4.8,20,-16.2506833,-47.9254617,,
72800991,14,CASARÃO DOS FRANGOS,,ChIJMf9P2PeXWZMRlqTzl0l76cA,"Av. Sérgio Buarque de Holanda - Parque Estrela Dalva III, Luziânia - GO, 72831-330",Luziânia,GO,+55 61 98619-6583,4.3,29,-16.2417802,-47.9022219,,
72800991,15,Forneria Qualitá,,ChIJv5LS1KyZWZMRZ5m8wK6xOZc,"R. 15, quadra 63 - lote 07 - Luziânia, GO, 72836-270",Luziânia,GO,+55 61 98481-8010,5,7,-16.210594699999998,-47.923155799999996,,
72801020,20,Manna's Lanches,,ChIJJ-Aw-_2ZWZMRjlkm7hm2IYo,"R. Plácido de Paiva, 678-884 - St. Fumal, Luziânia - GO, 72801-670",Luziânia,GO,+55 61 99684-0352,4.8,6,-16.269417,-47.9519837,,
72801110,12,PitStop Lanches,,ChIJfyrksZOZWZMRy5ZNtZIjEJE,"St. Fumal, Luziânia - GO, 72801-760",Luziânia,GO,+55 61 99574-3287,5,1,-16.264857,-47.957251,,
72801570,14,Bar e restaurante rota 13 setor fumal,,ChIJFw3XT-2ZWZMRGePuv1647_4,"R. Isac Gonçalves, S/n - St. Fumal, Luziânia - GO, 72801-620",Luziânia,GO,+55 61 99245-4176,5,4,-16.2665684,-47.955275,,
72800380,5,"Restaurante, Bar e Lanchonete Aeroporto",,ChIJ0YFhUvqYWZMRQ6LTie1_lcM,"Luziânia, GO",Luziânia,GO,+55 61 99981-9280,4.5,32,-16.2588136,-47.9682801,,
72800690,19,Cozinha Centro oeste,https://www.instagram.com/cozinhacentro.oeste?igsh=ODA1NTc5OTg5Nw==,ChIJdUV9ec6ZWZMRJob26AQkaTE,"Av. Dona - Av. Sara Kubitschek, Qd. 58 - Lote 17 Loja 1 - Parque Jk, Luziânia - GO, 72815-450",Luziânia,GO,+55 61 99890-1488,,,-16.236579,-47.9421488,,
72811060,19,Aerobar,https://instagram.com/_aero_bar?utm_medium=copy_link,ChIJpQAgM6KZWZMRdDlNPy-ZUhg,"Aeroporto Araripe de Macedo - SWUZ, Luziânia - GO",Luziânia,GO,+55 61 99306-0862,5,1,-16.2589518,-47.9675063,,
72811070,3,Cantral Caipira,,ChIJb2xQQpqZWZMRz8jvw99nx_8,"R. 19 - Luziânia, GO, 72872-017",Luziânia,GO,,5,1,-16.2120395,-47.927557,,
72811070,15,Lanchonete Ebenézer,,ChIJt20f1zOZWZMR0bghZm0YB98,"Parque Alvorada I, Luziânia - GO, 72836-340",Luziânia,GO,+55 61 99412-4277,5,4,-16.2115275,-47.9298766,,
72811120,1,Espetinho do Carlin,,ChIJp9VsTuiZWZMR4RV7zCaDlhY,"R. Luziânia, 169-159 - Luziânia, GO, 72812-620",Luziânia,GO,+55 61 99167-5122,4.6,202,-16.2467147,-47.9619728,,
72811240,19,DGuste Burguers assados e grelhados,,ChIJYVg5Q8aZWZMR7eobl-l1aWA,"Eng Jofre Mozart parada - R. Turmalina, quadra 39 - lote 01 - Luziânia, GO, 72811-400",Luziânia,GO,+55 61 99885-0773,,,-16.245984699999998,-47.9667811,,
72811350,18,Sonho Pizza,,ChIJJ13F5gaZWZMR9IstpbMEWP8,"Luziânia, GO, 72811-380",Luziânia,GO,,,,-16.2444778,-47.9642504,,
74905030,1,Restaurante Zero Grau,https://restaurante-zero-grau.business.site/,ChIJV4ggypTwXpMRe80Ds4HSpHo,"R. Fortaleza, 1769 - qd 40 lt 4 - Jardim Esmeraldas, Aparecida de Goiânia - GO, 74905-060",Aparecida de Goiânia,GO,+55 62 3280-4111,4.5,1164,-16.7329309,-49.2599272,,
74905030,2,Peixaria Gruta do Peixe,,ChIJQZj_BZfxXpMRcMaqVZQ7bw0,"Rua 42, Quadra 69 Lote 01 - Jardim Santo Antônio, Aparecida de Goiânia - GO, 74911-775",Aparecida de Goiânia,GO,+55 62 99384-9918,4.5,24,-16.731938,-49.2568986,,
74905030,3,Restaurante M&E,,ChIJ8-QbLevwXpMRyv-UeELQERw,"Av. São Paulo - Jardim Esmeraldas, Aparecida de Goiânia - GO, 74905-065",Aparecida de Goiânia,GO,,4.8,4,-16.7325512,-49.2607728,,
74905030,4,Restaurante e Bar do Marrom - Peixaria,,ChIJ_____-zwXpMRpXeFYXQ4Psc,"R. 30 A, quadra 69 - lote 6 - Jardim Santo Antônio, Goiânia - GO, 74843-060",Aparecida de Goiânia,GO,+55 62 99432-7316,4.6,171,-16.7323698,-49.2563886,,
74905030,5,Bar & Restaurante Tio Chico,,ChIJNV6PqaTxXpMRMveuP3kT4To,"R. Santa Helena - Jardim Esmeraldas, Aparecida de Goiânia - GO, 74905-090",Aparecida de Goiânia,GO,+55 62 99259-3395,5,5,-16.733084599999998,-49.2565556,,
74905030,6,Restaurante Sabor de Vitoria,https://restaurante-sabor-de-vitoria.negocio.site/?utm_source=gmb&utm_medium=referral,ChIJz1eWoZPwXpMRmNTSVIKnrvM,"quadra 38 A lote 01, Av. Rudá - Vila Brasilia, Aparecida de Goiânia - GO, 74905-760",Aparecida de Goiânia,GO,+55 62 3548-2844,4.3,27,-16.7344781,-49.2574854,,
74905030,7,Retrô Bar,https://www.facebook.com/Retro-Bar-577204332618554/,ChIJfc7cn-zwXpMR_HQ9hp4wH0k,"Retro Bar - Rua Nova Olinda Esq. C/ Rua Bahia Qd 38 Lt 19 - Jardim Esmeraldas, Aparecida de Goiânia - GO, 74905-070",Aparecida de Goiânia,GO,+55 62 99436-4711,4.6,131,-16.7309542,-49.258797099999995,,
74905030,8,Bacanas Bar e Restaurante,,ChIJGwey-7fxXpMRYtsGbCsKkI4,"avenida Bela Vista com, R. Cuiabá, Qd 18 - Lt 01 - Jardim das Esmeraldas, Goiânia - GO, 74855-700",Aparecida de Goiânia,GO,,4.9,15,-16.7266796,-49.2607953,,
74905030,9,Restaurante Mendonça,,ChIJ6TpYLuDxXpMRnCuqfG-mBFg,"R. Nova Olinda, 283 - Jardim Esmeraldas, Aparecida de Goiânia - GO, 74905-070",Aparecida de Goiânia,GO,+55 62 98313-9815,5,3,-16.7315735,-49.2608094,,
74905030,10,Lanchonete Flor Do Caribe,,ChIJhStnwZTwXpMR8MEOJIlEHSk,"Av. São Paulo - Jardim Esmeraldas, Goiânia - GO, 74905-770",Aparecida de Goiânia,GO,,1,1,-16.7335548,-49.260296,,
74905030,11,Restaurante Panela De Barro,,ChIJS66Y5-vwXpMRBO3NeNsfmAA,"Av. Bela Vista, 309 - Qq D16 LT 1 - Jardim das Esmeraldas, Goiânia - GO, 74830-020",Aparecida de Goiânia,GO,+55 62 98110-0231,4.4,82,-16.7280986,-49.2599261,,
74905030,12,Empório Naturalle,,ChIJ-RFg_5LwXpMRsK22f7lxwvE,"Av. Rudá - Vila Brasilia, Aparecida de Goiânia - GO",Aparecida de Goiânia,GO,,1.9,87,-16.733989299999998,-49.255999599999996,,
74905030,13,Restaurante Multi-Sabor,,ChIJefY34CvyXpMR7ugbu89S0aQ,"Av. 4ª Radial, 1399 - Jardim das Esmeraldas, Goiânia - GO, 74830-065",Aparecida de Goiânia,GO,,5,5,-16.723279899999998,-49.2603252,,
74905030,14,Lima's Grill,,ChIJ4f4hVpLwXpMRVbXRbYkjwj0,"Av. Rudá, 510 - Vila Santo Antônio, Aparecida de Goiânia - GO, 74911-700",Aparecida de Goiânia,GO,+55 62 3583-7435,4.3,394,-16.734025199999998,-49.2558967,,
74905030,15,Restaurante Keromais,,ChIJdW7Kr-fwXpMRnpAVfk_P1Y8,"Av. Laudelino Gomes, 101 - St. Pedro Ludovico, Goiânia - GO, 74830-090",Aparecida de Goiânia,GO,+55 62 3255-6891,4.4,332,-16.7214761,-49.261217599999995,,
74905030,16,Zitos Bar Restaurante e Pizzaria,https://zitos-bar-restaurante-e-pizzaria.negocio.site/?utm_source=gmb&utm_medium=referral,ChIJpR8uPs3xXpMRejrzm4YGxH4,"R. Sapucaí, qd 60 - lt 11 - Vila Brasilia, Aparecida de Goiânia - GO, 74905-670",Aparecida de Goiânia,GO,+55 62 4105-3416,4.4,53,-16.740447,-49.2612173,,
74905030,17,Prato's Restaurante,,ChIJHZTJuZTwXpMRVmwgTH90-3Y,"Tetê Sabor Goiano, Av. Bela Vista - Jardim das Esmeraldas, Goiânia - GO, 74830-020",Aparecida de Goiânia,GO,+55 62 3275-8752,4.4,153,-16.7263551,-49.2609984,,
74905030,18,RESTAURANTE COMIDA CASERA,,ChIJqRYsS77wXpMRvr0iOnkIceY,"R. das Estrada - Vila Brasilia, Goiânia - GO, 74905-290",Aparecida de Goiânia,GO,,,,-16.736148099999998,-49.2652934,,
74905030,19,Sophia lanchonete e restaurante,,ChIJm2vVJ8DxXpMRiRPe9s8hKKM,"R. 21, 82 - Jardim Santo Antonio, Goiânia - GO, 74853-340",Aparecida de Goiânia,GO,,3.6,31,-16.730898,-49.244560799999995,,
74905030,20,Restaurante Camargo,,ChIJO-TSepbwXpMR4gUb5WfEvS4,"Esquina com - Av Brasília, R. Paracatu, Qd 56 - lt 03, Aparecida de Goiânia - GO, 74905-190",Aparecida de Goiânia,GO,,4.7,80,-16.7381513,-49.2620546,,
74905030,1,TOKYO CULINÁRIA JAPONESA,,ChIJ5yc2YAnxXpMRROi7flEwgo4,"R. 1096 - Setor Pedro Ludovico, Goiânia - GO, 74830-210",Aparecida de Goiânia,GO,+55 62 98103-2869,5,2,-16.7293897,-49.264507599999995,,
74905030,2,Sarça Restaurante,,ChIJ95LLRb_wXpMR4A9wC3UlDJA,"Av. Sen. José Rodrigues de Morais Neto, 2022 - Parque Amazonia, Goiânia - GO, 74835-620",Aparecida de Goiânia,GO,+55 62 3095-4924,4.4,1766,-16.732126,-49.272892,,
74905030,3,Simbora Restaurante 24h - Pedro Ludovico,,ChIJoSLgY_zwXpMRGCWGa9XI0Xk,"Av. Circular, 710 - St. Pedro Ludovico, Goiânia - GO, 74823-020",Aparecida de Goiânia,GO,+55 62 3091-2182,4.3,2008,-16.715162499999998,-49.2508562,,
74905030,4,Bar e Restaurante Do Luka,,ChIJJf4_gunxXpMR3yugJ6ORWoM,"R. Gurupi, Qd50 - Lt09, Casa-5 - Vila Brasilia, Aparecida de Goiânia - GO, 74905-350",Aparecida de Goiânia,GO,+55 62 98134-6403,,,-16.7370139,-49.2619835,,
74905030,5,Alagoiano Restaurante - Parque Amazônia,http://bit.ly/alagoianorestaurante,ChIJbXobft3wXpMRcZWm3T54SeI,"Avenida Alexandre de Morais, 1093 Setor - Parque Amazonia, Goiânia - GO, 74840-300",Aparecida de Goiânia,GO,+55 62 3945-0515,4.4,644,-16.7380426,-49.2739516,,
74905030,6,Mr.Betto restaurante e açaíteria,,ChIJw07ANI_xXpMRFITFQCShsig,"Av. Sen. José Rodrigues de Morais Neto, 2367 - Parque Amazonia, Goiânia - GO, 74835-620",Aparecida de Goiânia,GO,+55 62 99101-1256,4.6,14,-16.733704,-49.2697657,,
74905030,7,Restaurante Bom La Petiti,,ChIJvVc7Y4zwXpMROgXHDUyoVp4,"Av. Bela Vista, s/n - Conj. Liberdade, Aparecida de Goiânia - GO, 74853-410",Aparecida de Goiânia,GO,+55 62 3282-8637,4.4,296,-16.7324937,-49.2506705,,
74905030,8,Tilápia na Brasa Restaurante,,ChIJdT8T_1_3XpMR9hEghCDEsvk,"Serrinha, Goiânia - GO, 74280-090",Aparecida de Goiânia,GO,+55 62 99614-8471,4.2,174,-16.7208845,-49.2731992,,
74905030,9,Tropa do açaí e Restaurante,,ChIJN_DQf5XxXpMRchfQePt-mCg,"Av. Bela Vista, 297 - Jardim das Esmeraldas, Goiânia - GO, 74905-020",Aparecida de Goiânia,GO,,,,-16.7279478,-49.260054,,
74905030,10,Braga’s Restaurante - UNIDADE VILA BRASILIA,,ChIJV-y1XZLxXpMRXhDBXiM1Ljo,"R. Tapajós, Quadra 54 - Lote 10 - Vila Brasilia, Aparecida de Goiânia - GO, 74905-700",Aparecida de Goiânia,GO,+55 62 99805-0657,5,9,-16.7356139,-49.2642512,,
74905030,11,Nordeste Coco,,ChIJv-Uts-nxXpMRZjZsTx0M2iM,"Av. Transbrasiliana, 1186 - Serrinha, Goiânia - GO, 74835-190",Aparecida de Goiânia,GO,,4.5,20,-16.7283912,-49.2644191,,
74905030,12,Restaurante Botânico,http://www.fb.com/botanicorestaurante,ChIJe2L2x4zwXpMRw_IzM0IaFrg,"Av. B Q, 25, Lt. 02 n° 263 - Jardim Santo Antônio, Goiânia - GO, 74853-030",Aparecida de Goiânia,GO,+55 62 3249-0839,4.6,484,-16.7297834,-49.2491884,,
74905030,13,Buritis Restaurante - Nova Suíça,,ChIJ4Z8sLWHxXpMRORkEEi5D3Ms,"R. C-264, 140 - St. Nova Suica, Goiânia - GO, 74280-270",Aparecida de Goiânia,GO,+55 62 3259-4075,4.4,364,-16.7183451,-49.2725809,,
74905030,14,Restaurante E Lanchonete Requinte,,ChIJZ1jh2r3wXpMRJzjnvU72Rz0,"Vila Brasilia, Aparecida de Goiânia - GO, 74905-600",Aparecida de Goiânia,GO,,4.8,8,-16.7391201,-49.2656322,,
74905030,15,Restaurante esconderijo do altíssimo,,ChIJr_Vtga7xXpMRtabAQM8x4xo,"R. das Estrada - Goiânia, GO, 74905-290",Aparecida de Goiânia,GO,+55 62 99329-5665,5,1,-16.736088199999998,-49.2653063,,
74905030,16,Restaurante Pão de Queijo de Minas - lanches e almoço,https://api.whatsapp.com/send?phone=5562999205958&text=Ol%C3%A1%20tudo%20bem?%20Como%20posso%20te%20ajudar%20%ED%A0%BD%ED%B8%83,ChIJvYpWBBbxXpMRm4HG-9_Ya7w,"Av. Feira de Santana, Q 41, L 4, S/N, casa 1 - Parque Amazonia, Goiânia - GO, 74835-700",Aparecida de Goiânia,GO,+55 62 99920-5958,,,-16.736480099999998,-49.272675199999995,,
74905030,17,Restaurante Tempero Da Lu Setor Pedro Ludovico,https://wa.me/5562998093333,ChIJYdfmMKDxXpMR8Hjco8uF3Do,"Praça Izidoria de Almeida Barbosa - St. Pedro Ludovico, Goiânia - GO, 74823-050",Aparecida de Goiânia,GO,+55 62 99809-3333,5,11,-16.713348,-49.2532559,,
74905030,18,Tapera do Mário - Restaurante & Lanchonete,http://www.instagram.com/taperadomario,ChIJZ4sIOx_xXpMR26iuRFYM-0c,"R. R-8, 271 Quadra 56, Lote 01, Sala 3 Praça do Comércio Vila Redenção, 271, Goiânia - GO, 74845-740",Aparecida de Goiânia,GO,+55 62 3271-0379,4.5,21,-16.7186219,-49.2427588,,
74905030,19,Restaurante Cinco Pães e Dois Peixinhos,,ChIJlYf4r4TxXpMRzsa0YlZDzdQ,"Av. 4ª Radial - Jardim Esmeraldas, Aparecida de Goiânia - GO, 74905-065",Aparecida de Goiânia,GO,+55 62 98532-2082,5,3,-16.7269957,-49.2620514,,
74905030,20,Restaurante Cristiane - Fogão à Lenha,https://restaurante-cristiane-fogao-a-lenha.negocio.site/?utm_source=gmb&utm_medium=referral,ChIJx-IJY7PxXpMRbXb-xPfE-X4,"Av. dos Colonizadores, Qd 108 - Lt 19 - Vila Brasilia, Aparecida de Goiânia - GO, 74905-270",Aparecida de Goiânia,GO,+55 62 99815-9461,4.5,429,-16.738164299999998,-49.2656225,,
74905030,1,BUFFET BRITO E RESTAURANTE,,ChIJ36E4qKTxXpMRqcFAuInUH6Q,"Alameda Imbé, 56 - Parque Amazonia, Goiânia - GO, 74840-460",Aparecida de Goiânia,GO,,5,2,-16.7329409,-49.2690516,,
74905030,2,Mundial grill restaurante,,ChIJJ3NnrRvxXpMR-YRVCyzM3Oo,"R. Sacramento, qd 126 - lt 04 - St. dos Afonsos, Aparecida de Goiânia - GO, 74915-380",Aparecida de Goiânia,GO,+55 62 99330-1840,4.5,11,-16.7385034,-49.2691382,,
74905030,3,Restaurante PRATO DO DIA,,ChIJD2cfX17xXpMReVPkwiJlGFA,"Av. Planalto, Qd.2B Lt.30 - Jardim Bela Vista, Goiânia - GO, 74863-200",Aparecida de Goiânia,GO,+55 62 99617-1011,4.5,6,-16.7334243,-49.240907,,
74905030,4,Panelinha Gourmet Restaurante,https://panelinha-gourmet.negocio.site/?utm_source=gmb&utm_medium=referral,ChIJUwlEbsr5XpMR8f-I_zNcHs4,"Muro Verde Turquesa - Av. Piratininga, 1577 - QD 02 LT 09 - Parque Amazonia, Goiânia - GO, 74835-160",Aparecida de Goiânia,GO,+55 62 98560-0878,4.1,80,-16.731569099999998,-49.266137199999996,,
74905030,5,Varandas Restaurante,,ChIJr349rjjxXpMR8FxliA6xq6Y,"Av. T-13, 1183 - St. Nova Suica, Goiânia - GO, 74823-400",Aparecida de Goiânia,GO,,4.4,8,-16.7194783,-49.2695574,,
74905030,6,Cassero Restaurante por quilo no Parque Amazônia em Goiânia,http://www.cassero.com.br/,ChIJCZvP983wXpMRprWyIivMK58,"Qd. 204 Lt. 1/2 N. 1130, Av. Sen. José Rodrigues de Morais Neto - Parque Amazonia, Goiânia - GO, 74840-080",Aparecida de Goiânia,GO,+55 62 3991-1055,4.5,812,-16.727681999999998,-49.279875,,
74905030,7,Sabores de Lisboa,,ChIJ28u7JSH3XpMRmGQYLrUNsDg,"Av. C-255, 321 - St. Nova Suica, Goiânia - GO, 74280-010",Aparecida de Goiânia,GO,+55 62 3911-3232,4.6,269,-16.716361199999998,-49.274071199999995,,
74905030,8,Carne de Sol 1008,https://carnedesol1008.com.br/home/,ChIJv7v9wgLxXpMRNcQLhpC04us,"R. 1008, 148 - St. Pedro Ludovico, Goiânia - GO, 74820-210",Aparecida de Goiânia,GO,+55 62 3241-6778,4.8,6883,-16.7098588,-49.2526909,,
74905030,9,Restaurante e Empório T 15 Grill,,ChIJt-Tow9jwXpMR81SFh36llNw,"Av. T-15, 1528 - St. Nova Suica, Goiânia - GO, 74280-380",Aparecida de Goiânia,GO,+55 62 3086-4080,4.3,84,-16.7161688,-49.2703954,,
74905030,10,Restaurante Comida Caseira do Pará,,ChIJdy4dcNnxXpMR7AU9rdTh7Uc,"R. Iguaçu, qd : 139 - A lt:06 - St. dos Afonsos, Goiânia - GO, 74915-310",Aparecida de Goiânia,GO,+55 62 98181-5488,5,12,-16.7395293,-49.267167,,
74905030,11,Restaurante reconquista,,ChIJe6SXpqfxXpMRe_D_jyDp2SU,"Av, 02 - 11 qd 109 lote - Itapuã, Aparecida de Goiânia - GO, 74940-130",Aparecida de Goiânia,GO,+55 62 98305-1734,,,-16.7401336,-49.252187899999996,,
74905030,12,Casa Cortela - Restaurante e Café,https://instagram.com/casacortela,ChIJabvw7qnxXpMRF0i5HugCmak,"Av. T-14, Quadra 02 Lote 14 C-1 - Serrinha, Goiânia - GO, 74835-085",Aparecida de Goiânia,GO,+55 62 3581-9088,4.8,608,-16.7205181,-49.2669201,,
74905030,13,Restaurante Guerra,,ChIJSXgb0orwXpMRkoZBrRrQAQ0,"R. 19, 88 - Jardim Santo Antônio, Goiânia - GO, 74853-310",Aparecida de Goiânia,GO,,3.7,3,-16.7293658,-49.2455966,,
74905030,14,Restaurante Chão Nativo,https://chaonativorestaurante.negocio.site/?utm_source=gmb&utm_medium=referral,ChIJu0rnPCPxXpMRYZdx1RSY5SM,"Av. T-11, 299 - St. Bueno, Goiânia - GO, 74223-070",Aparecida de Goiânia,GO,+55 62 3241-2266,4.5,2402,-16.7066898,-49.266925799999996,,
74905030,15,Restaurante Tempero Verde,,ChIJOdwmffvwXpMR3MRkchYUCmE,"Av. 3ª Radial, 207 - St. Pedro Ludovico, Goiânia - GO, 74820-100",Aparecida de Goiânia,GO,+55 32427017,4.5,31,-16.7162492,-49.251735499999995,,
74905030,16,Restaurante Dom Ralf,http://www.domralf.com.br/,ChIJVYO6_-HwXpMR203dmRK0Le0,"Alameda Couto Magalhães, 685 - St. Bela Vista, Goiânia - GO, 74823-415",Aparecida de Goiânia,GO,+55 62 3255-6185,4.7,581,-16.7131,-49.258967,,
74905030,17,Restaurante Chama Quente,,ChIJXdPBR0nxXpMR5Ru4ODw5MtU,"Av. São Paulo - Vila Brasilia, Aparecida de Goiânia - GO, 74910-010",Aparecida de Goiânia,GO,+55 62 99378-7801,5,6,-16.742214099999998,-49.2561481,,
74905030,18,Restaurante Comida Goiana,,ChIJicYY0HvwXpMRDrXS0R3g05c,"R. Aruanã, 1 - Jardim Bela Vista, Aparecida de Goiânia - GO, 74912-260",Aparecida de Goiânia,GO,+55 34 99814-4360,4.4,84,-16.7407164,-49.236561099999996,,
74905030,19,Restaurante Parque Real ZAP 62991306811,,ChIJfT3cmHj6XpMRmbgY6QzRz78,"R. Duquesa de Goiás - Vila Sao Joaquim, Aparecida de Goiânia - GO, 74910-500",Aparecida de Goiânia,GO,+55 62 99130-6811,4.9,8,-16.7496611,-49.250068399999996,,
74905030,20,Thiaguinho Restaurante,,ChIJHU_Z2wfxXpMRBtfYY9f-PpY,"R. Condé Montecristo, 806 - Parque Real de Goiânia, Aparecida de Goiânia - GO, 74910-090",Aparecida de Goiânia,GO,+55 62 99668-1585,4.2,27,-16.7431342,-49.254365899999996,,
74905030,1,Casa Moura Restaurante,,ChIJtdQ-z3_xXpMR-14tmWX5Qbo,"R. Igaçaba, 77 - Jardim Luz, Aparecida de Goiânia - GO, 74915-120",Aparecida de Goiânia,GO,,5,1,-16.7419281,-49.2729025,,
74905030,2,Marques Grill restaurante,,ChIJ7yoWx2TxXpMRIwcaYy-EmH8,"Alameda Couto Magalhães, 198 - St. Bela Vista, Goiânia - GO, 74825-040",Aparecida de Goiânia,GO,,3,10,-16.7176646,-49.258285199999996,,
74905030,3,Trenhera BURGER & espetaria,https://instagram.com/trenheraburger?igshid=NGVhN2U2NjQ0Yg%3D%3D&utm_source=qr,ChIJ2WdKK1H3XpMRJhG52eJX-hA,"Rua 1102 - Quadra 207 - Lote 22 - Número 695 - Pedro Ludovico, Goiânia - GO, 74830-270",Aparecida de Goiânia,GO,+55 62 99668-3403,4.6,20,-16.727757099999998,-49.2631164,,
74905030,4,Restaurante Mau Nenhum,https://mau-nenhum.negocio.site/?utm_source=gmb&utm_medium=referral,ChIJF9m_nyjyXpMRITO7T0ilX5Q,"R. T-65, 3569 - St. Bueno, Goiânia - GO, 74230-120",Aparecida de Goiânia,GO,+55 62 3255-0939,4.5,4213,-16.7173664,-49.2645124,,
74905030,5,Steak Grill Restaurante,https://instagram.com/steakgrillrestaurante?igshid=Yzg5MTU1MDY=,ChIJZzHz-prwXpMRF35Gg8KEwyA,"Av. São Paulo, quadra 09 - lote 03 - Vila Brasilia, Aparecida de Goiânia - GO, 74905-770",Aparecida de Goiânia,GO,+55 62 3548-4465,4.3,379,-16.7429487,-49.2557779,,
74905030,6,Casa Do Sabor,http://www.casadosabor.com.br/,ChIJYXTe5b7wXpMRWhSBLDk9laU,"Av. Rio Verde - St. dos Afonsos, Goiânia - GO, 74915-420",Aparecida de Goiânia,GO,+55 62 3584-5850,4.4,151,-16.737133099999998,-49.2673251,,
74905030,7,Mariah Restaurante,,ChIJ57SNqxzxXpMROTElG4idZEI,"Alameda Guimarães Natal - St. Pedro Ludovico, Goiânia - GO, 74820-030",Aparecida de Goiânia,GO,+55 62 99948-0162,4.9,24,-16.707410499999998,-49.2538756,,
74905030,8,Gigga Bar e Restaurante,,ChIJS8ziS7jxXpMReys3FYFL_BM,"Avenida Leonardo da Vinci Qd 14 lt 10 n° 1045, Goiânia - GO, 74850-490",Aparecida de Goiânia,GO,+55 62 3202-6483,4.2,177,-16.7290965,-49.237916299999995,,
74905030,9,Carbonara Massas e Restaurante 🏾‍,,ChIJA9IrbVHxXpMRlpsvifhaZsc,"R. Igapó - Parque Amazonia, Goiânia - GO, 74835-440",Aparecida de Goiânia,GO,,5,2,-16.7296823,-49.278518899999995,,
74905030,10,Moriah Restaurante Lanchonete Sorveteria,,ChIJFbJsCIvwXpMRwX5txja3cwI,"Rua 26 - Jardim Santo Antonio, Goiânia - GO, 74853-050",Aparecida de Goiânia,GO,,,,-16.7317395,-49.2461479,,
74905030,11,Bife com ovo,,ChIJR2ylaQLxXpMRVFCopIEamtI,"R. Campos do Jordão, qd.103 - lote04 casa 01 - bairro São Tomaz, Aparecida de Goiânia - GO, 74915-495",Aparecida de Goiânia,GO,+55 62 98575-7419,,,-16.7408732,-49.275371299999996,,
74905030,12,Mangueirao Bar e Restaurante,,ChIJLevpL9vwXpMRLa5bZgX2jFE,"Av. Feira de Santana, 190 - Parque Amazonia, Goiânia - GO, 74835-700",Aparecida de Goiânia,GO,,4.5,104,-16.7249451,-49.2708873,,
74905030,13,Arpoador Bar e Restaurante,https://arpoador.negocio.site/?utm_source=gmb&utm_medium=referral,ChIJX5g227jwXpMRaqzP2BtnJq4,"1496, Av. Alexandre de Morais, 1396 - Parque Amazonia, Goiânia - GO, 74840-300",Aparecida de Goiânia,GO,+55 62 3922-0142,4.4,3678,-16.7368444,-49.2698166,,
74905030,14,Restaurante Tempero Goianio,,ChIJ9allTrHwXpMR6rEqzONerNo,"R. Campos do Jordão, 44-138 - Jardim Atlântico, Goiânia - GO, 74915-495",Aparecida de Goiânia,GO,+55 62 3280-5007,4.6,56,-16.7419769,-49.2783197,,
74905030,15,Restaurante da Tia,https://restaurante-pinheiro.negocio.site/,ChIJM8bImOTwXpMRq6YOEvotDEg,"R. 1041, Qd 88 - Lt 04 - St. Pedro Ludovico, Goiânia - GO, 74825-080",Aparecida de Goiânia,GO,+55 62 99299-6494,4.7,39,-16.7174014,-49.2552616,,
74905030,16,Vivi Restaurante,https://app.anota.ai/vivi-marmita-almoo-churrasco-file?from=msa&utm_source=portal-share-btn,ChIJN6tRE6nxXpMRuaOSq0jZf3U,"Av. T-15, 2152 - Quadra 250 Lote 21 - Parque Amazonia, Goiânia - GO, 74835-290",Aparecida de Goiânia,GO,+55 62 98550-3802,4.2,153,-16.7220296,-49.2698919,,
74905030,17,Braga’s Restaurante - parque Amazônia,,ChIJLZ5dDLnwXpMRUhifh3_ZpmA,"R. Caragoata, 102-146 - Parque Amazonia, Goiânia - GO, 74840-240",Aparecida de Goiânia,GO,+55 62 99805-0657,4.6,487,-16.7385119,-49.271168599999996,,
74905030,18,Portuga Gourmet Bar e Restaurante,,ChIJ03W566XxXpMRsYAo_bpWHG0,"esc com T-14 - Av. 4ª Radial - St. Pedro Ludovico, Goiânia - GO, 74623-845",Aparecida de Goiânia,GO,+55 62 99198-0455,4.4,105,-16.7199894,-49.2590195,,
74905030,19,Brutu's Show Bar e Restaurante,https://instagram.com/brutusgyn,ChIJYZiAQNnwXpMRcsDXxey__Uc,"R. C-264, 434 - St. Nova Suica, Goiânia - GO, 74280-270",Aparecida de Goiânia,GO,+55 62 3911-9604,4.2,2421,-16.7193961,-49.2700925,,
74905030,20,Burggs Sanduícheria,https://burggs.digitalizze.biz/,ChIJ8bLh6SLxXpMR-TPMDt3CYxA,"R. Boa Vista, 360 - Jardim Esmeraldas, Goiânia - GO, 74905-770",Aparecida de Goiânia,GO,+55 62 98342-8754,4.5,161,-16.7330372,-49.2603839,,
74905030,1,Rei´s Restaurante,,ChIJjRhmaODwXpMRJolwLPyTeGw,"Rua S-2, n.379 Esquina com, R. T, 64 - St. Bela Vista, Goiânia - GO, 74823-430",Aparecida de Goiânia,GO,+55 62 3926-0203,4.5,449,-16.7157429,-49.2626888,,
74905030,2,Master Peixe - Bar e Restaurante,,ChIJo3kFtqrxXpMRRkXMXHsPyDo,"R. Paraguassu - Vila Brasilia, Aparecida de Goiânia - GO, 74905-450",Aparecida de Goiânia,GO,,5,1,-16.7424212,-49.2648595,,
74905030,3,Restaurante Ranchos Gastronomia,https://linktr.ee/RanchosGastronomia,ChIJ45lEiDnxXpMRZyIkMi0ragQ,"Av. T-9, Qd 82 - Lt 09, 1054 - St. Bueno, Goiânia - GO, 74215-020",Aparecida de Goiânia,GO,+55 62 3251-2774,4.3,434,-16.7017037,-49.272205199999995,,
74905030,4,Lanchonete E Restaurante,,ChIJ81cAUWbwXpMRZaN2M9vbfDY,"Alameda do Contorno, 2699 - Jardim da Luz, Goiânia - GO, 74850-320",Aparecida de Goiânia,GO,,5,3,-16.7294847,-49.235568199999996,,
74905030,5,Kabanas Restaurante e Bar,http://kabanas.com.br/,ChIJqSx3FFPwXpMR4rWh68gyVWA,"Av. Dep. Jamel Cecílio, 3300 Loja AE-08 - Vila Maria Jose, Goiânia - GO, 74810-100",Aparecida de Goiânia,GO,+55 62 3922-3393,4.4,1414,-16.711586,-49.2364861,,
74905030,6,Tua Casa Bar e Restaurante,,ChIJBy0YiqfxXpMREeuN34dq568,"Av. Sen. José Rodrigues de Morais Neto, qd 38 LT 10 N 2.367 - Parque Amazonia, Goiânia - GO, 74835-470",Aparecida de Goiânia,GO,+55 62 99101-1256,5,20,-16.7339932,-49.2696912,,
74905030,7,Restaurante Bom Apetite-Goiânia,,ChIJI2mwL2bwXpMRNoWKfGg-SeY,"Avenida Bela Vista QD 2B Lt 06, Jd Bela Vista, Goiânia - GO, 74863-050, Av. Bela Vista, Qd 2B, Lt 06 - Jardim Bela Vista, Goiânia - GO, 74863-050",Aparecida de Goiânia,GO,+55 62 3598-0467,4.5,114,-16.7340353,-49.240557599999995,,
74905030,8,Delicias de Casa Comida Caseira,https://www.ifood.com.br/delivery/aparecida-de-goiania-go/delicias-de-casa-comida-caseira-jardim-maria-ines/77d5f010-42e1-48c7-aaa0-4ccb74825dd9?UTM_Medium=share,ChIJP5DZAnv7XpMRcpEMl-cPYkI,"R. Marquesa de Santos - Jardim Maria Inês, Aparecida de Goiânia - GO, 74914-025",Aparecida de Goiânia,GO,+55 62 98579-3038,,,-16.753930099999998,-49.2636275,,
74905030,9,Restaurante do Moura,,ChIJKTa-ajPxXpMRLpgM-fVbRMk,"Av. dos Colonizadores - Vila Brasilia, Aparecida de Goiânia - GO, 74905-270",Aparecida de Goiânia,GO,+55 62 99811-4979,4.2,5,-16.740702199999998,-49.2573878,,
74905030,10,Restaurante Sabor Goiano,,ChIJcyb50OHwXpMR3g7mEw2oNXc,"Av. T-63, 209 - St. Bela Vista, Goiânia - GO, 74823-340",Aparecida de Goiânia,GO,+55 62 3942-8239,4,182,-16.7140798,-49.2608342,,
74905030,11,Silvestre Restaurante,,ChIJL7rqyuHwXpMR_d2sIYsy7iA,"R. S-4, 260 - Quadra 12, Lote 06 - St. Bela Vista, Goiânia - GO, 74823-450",Aparecida de Goiânia,GO,+55 62 98498-0056,4.7,94,-16.7147209,-49.2613305,,
74905030,12,Restaurante Da Tia Zilda - Comida Caseira,,ChIJSxDo9tHwXpMRb4BTk9iZGgw,"Qd 201; Lt10, R. Umiri - Parque Amazonia, Goiânia - GO, 74835-590",Aparecida de Goiânia,GO,+55 62 3280-6891,4.8,790,-16.726729199999998,-49.2787413,,
74905030,13,Fechado,,ChIJLciHby7xXpMRW0rKDMJpgXY,"R. 5, Quadra 21 - Lote 14 - Vila Brasilia, Aparecida de Goiânia - GO, 74911-130",Aparecida de Goiânia,GO,+55 62 98564-6540,5,1,-16.737723199999998,-49.245974399999994,,
74905030,14,BraSo Restaurante e Lanchonete,,ChIJT2-sAYfxXpMREqgYVX8Z48s,"R. do Mato, Qd 89 - ch 86 - Chácara Bela Vista, Aparecida de Goiânia - GO, 74920-801",Aparecida de Goiânia,GO,+55 62 99358-7675,5,1,-16.7419705,-49.2281626,,
74905030,15,Empório Do Sabor,,ChIJFQiptuvxXpMRT-3Ho3DWhPM,"Qd:52 LT:10B, Av. Brunsviga - Vila Sao Tomaz, Aparecida de Goiânia - GO, 74915-490",Aparecida de Goiânia,GO,+55 62 99473-7600,,,-16.7471639,-49.2766808,,
74905030,16,D'Coelhos Restaurant,https://instagram.com/dcoelhoss?igshid=YTQwZjQ0NmI0OA==,ChIJW6nJRnfxXpMRAkWZWb5toyc,"Rua Couto de Magalhães - Jardim da Luz, Goiânia - GO, 74850-410",Aparecida de Goiânia,GO,,,,-16.7242693,-49.239207699999994,,
74905030,17,Gulla Restaurante E Café,,ChIJh_aCHFnwXpMR38fWhJJp4Lo,"Vila Redencao, Goiânia - GO, 74850-110",Aparecida de Goiânia,GO,,4.8,4,-16.7214393,-49.2407535,,
74905030,18,Restaurante Panela Mágica,http://panelamagica.com.br/,ChIJzf85Wf71XpMR08cjm4db4b0,"R. 13, 773 - St. Marista, Goiânia - GO, 74110-140",Aparecida de Goiânia,GO,+55 62 3223-6604,4.5,892,-16.6932614,-49.2673243,,
74905030,19,Gênova Restaurante e Pizzaria,https://www.instagram.com/genovapizzaria/,ChIJO8Z7-OjwXpMRzprDzLQazz0,"Av. 4ª Radial, Número 1419 - Quadra 12, Lote 06 - Jardim das Esmeraldas, Goiânia - GO, 74805-100",Aparecida de Goiânia,GO,+55 62 3255-0328,4.3,752,-16.7232932,-49.2604191,,
74905030,20,Restaurante Vitória,,ChIJdxbJdifxXpMRdYgJuWuLQoU,"R. C-235, 500 - St. Nova Suica, Goiânia - GO, 74280-130",Aparecida de Goiânia,GO,+55 62 3259-2563,4.4,64,-16.715157899999998,-49.2712539,,
74905030,1,Restaurante - LAS NENAS,,ChIJcaEx0hXxXpMR-Q53nSle2wg,"Av. 136, Nº 20 - Nº 20 - St. Marista, Goiânia - GO, 74180-040",Aparecida de Goiânia,GO,+55 62 3088-6070,4.5,1652,-16.7015278,-49.2639056,,
74905030,2,Restaurante Sabor Caseiro,,ChIJrXxlvm7xXpMR03vEeU_mwOs,"AVENIDA GONZAGA JAIME, Q 79, L 102, S/N - Vila Redencao, Goiânia - GO, 74845-360",Aparecida de Goiânia,GO,+55 62 99232-3307,,,-16.7200195,-49.242227199999995,,
74905030,3,Restaurante Divino Sabor,,ChIJB0XSayLxXpMRRmx_QCK40VY,"R. T-36, 309-525 - St. Bueno, Goiânia - GO, 74223-052",Aparecida de Goiânia,GO,+55 62 3954-5005,4.4,263,-16.708366299999998,-49.2650527,,
74905030,4,Maná Restaurante - Pedro Ludovico - Goiânia,,ChIJbwgs1CbxXpMR_ht45VIQBag,"Av. Circular, 140 - St. Pedro Ludovico, Goiânia - GO, 74823-020",Aparecida de Goiânia,GO,+55 62 3241-8878,4,102,-16.7127189,-49.2546737,,
74905030,5,Restaurante Fonte da Vida,,ChIJx6jj6x_xXpMRzjmKvrAGCiw,"Rua Couto de Magalhães - Jardim da Luz, Goiânia - GO, 74810-450",Aparecida de Goiânia,GO,+55 62 98474-1591,4.8,8,-16.7251199,-49.2378892,,
74905030,6,Modeste Bar e Restaurante,,ChIJwYopK0rxXpMRIu3ZnFTPcRs,"Av. T-15, 2425 - Qd 249, Lt 04 - Parque Amazonia, Goiânia - GO, 74835-290",Aparecida de Goiânia,GO,+55 62 98118-4172,5,1,-16.7244474,-49.2693705,,
74905030,7,Garibaldi Bar e Restaurante,https://garibaldi.accon.app/menu,ChIJFwCxVRvxXpMRWU9LY8OnOac,"Av. T-4, 1764 - Setor Serrinha, Goiânia - GO, 74835-090",Aparecida de Goiânia,GO,+55 62 3609-7570,4.5,1409,-16.7223695,-49.2667753,,
74905030,8,Siroco's restaurante e marmitaria,,ChIJe3LKw2DwXpMRZJjUC9kIS5Q,"Alameda do Contorno, 2434 - Conj. Anhangüera, Goiânia - GO, 74853-120",Aparecida de Goiânia,GO,+55 62 3092-2866,4.4,106,-16.7292299,-49.239632699999994,,
74905030,9,Restaurante Sabor & Arte,https://restaurantesaborarte.business.site/,ChIJba-_TmjwXpMRTeXI3ujoAP8,"Rua F 1, Rua L-3 - Parque das Laranjeiras, Goiânia - GO, 74855-300",Aparecida de Goiânia,GO,+55 62 3249-0999,4.3,781,-16.7289074,-49.2313828,,
74905030,10,Los Tacos Sanduicheria e Pizzaria,http://www.lostacossanduicheria.com.br/,ChIJrcW5g5bwXpMRVgouJe3N03c,"Av. das Bandeiras Qd.48 Lt.03, S/n - Vila Brasilia, Aparecida de Goiânia - GO, 74905-300",Aparecida de Goiânia,GO,+55 62 3952-3639,4.5,850,-16.7378094,-49.2609371,,
74905030,11,Restaurante Chão Nativo I,http://www.chaonativo1.com.br/,ChIJ2ZKiluXzXpMR6xShmFHUMXs,"Av. República do Líbano, 1809 - St. Oeste, Goiânia - GO, 74115-030",Aparecida de Goiânia,GO,+55 62 3223-5396,4.4,1745,-16.6818293,-49.2661247,,
74905030,12,Taji Japanese Cuisine,,ChIJcakhMGHxXpMRQORkgMtbNO0,"R. T-37, 2823 Casa 3, Qd. 119-B, Lt 21 - St. Bueno, Goiânia - GO, 74230-025",Aparecida de Goiânia,GO,+55 62 99427-5150,4.7,1881,-16.708808299999998,-49.2659028,,
74905030,13,Sabor Na Brasa Restaurante & Lanchonete,,ChIJjdHhAJTwXpMRiD5n6VFWPAY,"Vila Brasilia, Aparecida de Goiânia - GO, 74905-770",Aparecida de Goiânia,GO,,5,1,-16.7368205,-49.2589702,,
74905030,14,Restaurante Fortaleza - Parque Amazonia,http://contate.me/fortalezarestaurantr,ChIJt4g09j_xXpMRCtxzsx8zVuk,"Av. Sen. José Rodrigues de Morais Neto, Qd 165 - lt 01 - Parque Amazonia, Goiânia - GO, 74840-080",Aparecida de Goiânia,GO,+55 62 3229-7216,1,1,-16.7312474,-49.273771599999996,,
74905030,15,Madero Steak House Flamboyant,http://www.restaurantemadero.com.br/,ChIJERUeGjbwXpMR-eV9rwUMXk8,"Av. Dep. Jamel Cecílio, 3300 - loja T-129 - Jardim Goiás, Goiânia - GO, 74810-907",Aparecida de Goiânia,GO,+55 62 3121-2442,4.6,2882,-16.7107733,-49.2362531,,
74905030,16,Konpad Bar & Restaurante,https://www.instagram.com/konpadbar/,ChIJhVQSTEDxXpMRCx9pIFuNyA4,"Av. T-5, 1230 - St. Bueno, Goiânia - GO, 74230-040",Aparecida de Goiânia,GO,+55 62 98302-0805,3.9,33,-16.7174923,-49.269163299999995,,
74905030,17,Restaurante,,ChIJJQw8ivXxXpMR25P0JXFmaC8,"Av. T-9, Qd 90, Lt 13/16 sala13 - St. Bueno, Goiânia - GO, 74215-025",Aparecida de Goiânia,GO,,,,-16.7026488,-49.272316599999996,,
74905030,18,Jardins Cozinha Brasileira,,ChIJAaolx4DxXpMRCWJ56sTN7A0,"Av. dos Jardins, Jardim - Vila Jardim Vitoria, Goiânia - GO, 74885-826",Aparecida de Goiânia,GO,+55 62 98116-8370,5,6,-16.7264591,-49.214445999999995,,
74905030,19,Restaurante Chameguinho Caipira,,ChIJA9hHWDbxXpMRyzeSEH50EIE,"Alameda do Contorno, Qd 05 - Lote 11 - Jardim da Luz, Goiânia - GO, 74850-400",Aparecida de Goiânia,GO,+55 62 3584-4046,4.2,10,-16.729158599999998,-49.233981899999996,,
74905030,20,Restaurante Da Vovȯ,,ChIJWRfJeJXwXpMR-a2jxfev7DQ,"R. Tapajós, 427 - Vila Brasilia, Goiânia - GO, 74905-770",Aparecida de Goiânia,GO,,4.3,3,-16.7356264,-49.263523899999996,,
74905030,2,1890 bistrô,,ChIJ7eX1MIfxXpMRsZ77mxXgowg,"Av. Rio Verde, 102/104 - Vila Sao Tomaz, Aparecida de Goiânia - GO, 74915-515",Aparecida de Goiânia,GO,,4,5,-16.7409786,-49.2768558,,
74905030,8,Restaurante Dona Helena,https://instagram.com/dona_helenarestaurante?igshid=MTk0NTkyODZkYg%3D%3D&utm_source=qr,ChIJxXLh_wvxXpMRhx4hlfa6Z9c,"R. C-139, 276 - Qd.607 Lt.01 - Nova Suíça, Goiânia - GO, 74280-290",Aparecida de Goiânia,GO,+55 62 99468-5442,5,6,-16.7196896,-49.2737066,,
74905030,9,restaurante family&cia,,ChIJrSZuGUTxXpMRx2fgbw_q6Gg,"praça miguel couto - Vila Santa, Aparecida de Goiânia - GO, 74912-580",Aparecida de Goiânia,GO,+55 62 98230-5085,5,1,-16.746732299999998,-49.239861499999996,,
74905030,11,Sabor da Cidade,http://sabordacidade.net/?utm_source=gmb&utm_medium=referral,ChIJgfcQAkr3XpMRnWusCjyn2D8,"AV.Primeira avenida QD.2-B LT.01-E - Cidade Vera Cruz, Aparecida de Goiânia - GO, 74934-600",Aparecida de Goiânia,GO,+55 62 99133-6894,4.2,5,-16.7497963,-49.3056184,,
74905030,13,Botequim Esquina T15,https://www.instagram.com/esquinat15/,ChIJMTodfn7xXpMRhKnVOAZLT2s,"Av. T-15, 1400 - St. Bueno, Goiânia - GO, 74230-010",Aparecida de Goiânia,GO,+55 62 99864-7341,4,4,-16.7191382,-49.2696556,,
74905030,14,Restaurante Nobre Sabor,,ChIJQR9fRDz7XpMRJyquHwaNz2Q,"Av. da Alvorada, qd 11 - lt 19 - CRUZEIRODO SUL, Aparecida de Goiânia - GO, 74917-020",Aparecida de Goiânia,GO,+55 62 3576-6327,5,29,-16.759463999999998,-49.2743639,,
74905030,15,Restaurante Aroeirinha,,ChIJb5IkGKHxXpMRjs1lhltC1Gs,"St. Bueno, Goiânia - GO, 74175-120",Aparecida de Goiânia,GO,,4,35,-16.7042791,-49.2725581,,
74905030,16,Restaurante Oásis,,ChIJF8PD0nTxXpMRsQwA_wLylQc,"Av. T. 03 esquina com a, Av. T-9, 1855 - St. Bueno, Goiânia - GO, 74215-025",Aparecida de Goiânia,GO,+55 62 98631-3809,4.3,7,-16.706236699999998,-49.2777185,,
74905030,17,RESTAURANTE A MODA DA CASA,,ChIJ2Q7QsIj3XpMRudBwz4rYUHA,"Av. Chevalier Neme Jafete, 470-584 - Vila Mariana, Aparecida de Goiânia - GO, 74938-060",Aparecida de Goiânia,GO,+55 62 3952-1802,4.5,382,-16.7534527,-49.2871507,,
74905030,18,Restaurante Recanto da Alameda,,ChIJEyA2OI3wXpMRrmjFyj5UEnk,"Rua R - 8, 400 - Setor Oeste, Goiânia - GO",Aparecida de Goiânia,GO,,3.7,3,-16.7313453,-49.2522612,,
74905030,19,Gato Gourmet: Restaurante de Comida Caseira,https://gatogourmet.business.site/,ChIJVVUl2A3xXpMRZT8QNlAmz1Q,"R. 118, 482 - St. Sul, Goiânia - GO, 74085-400",Aparecida de Goiânia,GO,+55 62 3626-1816,4.6,373,-16.695227799999998,-49.251739099999995,,
74905030,20,Restaurante Catarina,http://www.facebook.com/restaurantecatarina,ChIJd9P3LEnxXpMR3m4C_ReF40I,"esquina com a - Avenida T1, R. T-48, 917 - St. Bueno, Goiânia - GO, 74210-098",Aparecida de Goiânia,GO,,4.5,516,-16.693404,-49.2768143,,
74905030,1,Joaozinho Merces Restaurante,,ChIJw66aHvPwXpMR0viUmLqLgiI,"R. 7, 505 - Jardim Santo Antonio, Goiânia - GO, 74853-200",Aparecida de Goiânia,GO,,3.7,3,-16.728984099999998,-49.2509851,,
74905030,2,Bruno Restaurante,https://instagram.com/brunorestaurante,ChIJw-Atf7fxXpMRRJMVnfHygCI,"R. Humaitá, 191-267 - Jardim Novo Mundo, Goiânia - GO, 74715-190",Aparecida de Goiânia,GO,+55 62 99293-6465,4.6,458,-16.6959265,-49.225994299999996,,
74905030,3,Balaio's Restaurante,,ChIJ_UuwSmXxXpMRU7CuJM7P-sM,"R. 83, 93 - St. Sul, Goiânia - GO, 74083-195",Aparecida de Goiânia,GO,+55 62 3093-5979,4.5,1318,-16.6817732,-49.253634,,
74905030,4,Restaurante Rancho do boi,https://instagram.com/barerestauranteranchodoboi?igshid=YmMyMTA2M2Y=,ChIJfVyQIs_1XpMRVVwg1Clhudw,"R. Padre Manoel da Costa, 200 - Cidade Jardim, Goiânia - GO, 74423-230",Aparecida de Goiânia,GO,+55 62 99645-0666,4.5,71,-16.6865079,-49.3119734,,
74905030,5,Comida A Kilo Marmitex Bangalô Restaurante,,ChIJbxlJ56HxXpMRLgmW4TGJPdE,"Jardim Goiás, Goiânia - GO, 74603-065",Aparecida de Goiânia,GO,+55 62 3661-2560,4.5,324,-16.689619399999998,-49.2397445,,
74905030,6,Restaurante Panela De Ouro,,ChIJF5vCTmPxXpMRydIue0c5SVk,"Rua 7, Quadra 21 Lote 7, R. 7, qd 21 - St. Morais, Goiânia - GO, 74620-035",Aparecida de Goiânia,GO,+55 62 3208-5234,4.6,16,-16.6698298,-49.2294986,,
74905030,7,Di Casa Pizzaria e Bar,https://di-casa-pizzaria-e-bar.negocio.site/?utm_source=gmb&utm_medium=referral,ChIJE6csOnfxXpMRuJ4kyv2gAHE,"Rua Jandaia com R Miracema, esquina - Vila Brasilia, Aparecida de Goiânia - GO, 74905-440",Aparecida de Goiânia,GO,+55 62 98310-8069,5,1,-16.7377145,-49.2558157,,
74905030,8,Underground Burger - Hamburgueria e Sanduicheria,https://www.instagram.com/undergroundburger.oficial/,ChIJixtYR8bwXpMRb-YDHvHvk0o,"Av. Sen. José Rodrigues de Morais Neto, 2040 - Qd. 157 Lt. 01 SL 5 St - Parque Amazonia, Goiânia - GO, 74840-080",Aparecida de Goiânia,GO,+55 62 3413-5365,4.5,1144,-16.732250099999998,-49.2727447,,
74905030,9,Restaurante E Lanchonete Baião De Dois,,ChIJ5ahFkI_wXpMRVA89GGMwcyk,"R. Jandaia - Recanto dos Emboabas, Aparecida de Goiânia - GO, 74905-440",Aparecida de Goiânia,GO,,,,-16.7394545,-49.2519437,,
74905030,10,Restaurante Panela De Ouro,,ChIJb3ZdhY_wXpMRFJM7-jXVFv0,"Vila Brasilia, Aparecida de Goiânia - GO, 74905-690",Aparecida de Goiânia,GO,,,,-16.7395948,-49.2518028,,
74905030,11,Restaurante 85 Sul,,ChIJC1ua1pHxXpMREv-kTzGswds,"Avenida 85 esquina com rua 94 na Galeria Naziha Center - St. Sul, Goiânia - GO, 74805-100",Aparecida de Goiânia,GO,+55 62 99969-7373,4,4,-16.684134399999998,-49.258465199999996,,
74905030,12,Restaurante e Bar Papo De Amigo,https://papodeamigo.negocio.site/,ChIJi-CPyiT0XpMRJtAk7UNIK7U,"Av. Dom Emanuel - Cidade Jardim, Goiânia - GO, 74425-240",Aparecida de Goiânia,GO,+55 62 99930-7561,4.7,29,-16.6775101,-49.3108048,,
74905030,13,Restaurante Michelle Lanchonete & Sorveteria,,ChIJ0eb_GD70XpMRl0z6GJHKrb0,"Av. Dom Vital - Rodoviário, Goiânia - GO, 74430-200",Aparecida de Goiânia,GO,+55 62 99678-8551,4.7,6,-16.670177799999998,-49.3048681,,
74905030,14,Colombu's Restaurante,http://colombus.com.br/,ChIJI3T7FsPzXpMRk0AOsfO18TI,"R. 2, 377 - St. Oeste, Goiânia - GO, 74110-130",Aparecida de Goiânia,GO,+55 62 3093-6064,4.5,1422,-16.6807941,-49.267312,,
74905030,15,El Argentino Restaurante,https://linktr.ee/elargentinogoiania,ChIJdS_zPVzxXpMRotqJMzaM1v0,"R. 4, 394 - Salas 5,6 & 7 - St. Oeste, Goiânia - GO, 74110-140",Aparecida de Goiânia,GO,+55 62 3941-4038,4.6,1650,-16.6819777,-49.2668116,,
74905030,16,MC Restaurante e Espetinhos,,ChIJEUQCGkzxXpMRfIazdd5Yi1Q,"Avenida dos colonizadores, R. L-1, quadra 82 - sala 3 - Vila Brasilia, Aparecida de Goiânia - GO, 74905-270",Aparecida de Goiânia,GO,,,,-16.740883399999998,-49.2568823,,
74905030,17,Filé Do Boi - Restaurante e Espetinhos,,ChIJOXmszznxXpMRxgGPrqABvAk,"R. 7, 874 - St. Oeste, Goiânia - GO, 74110-090",Aparecida de Goiânia,GO,+55 62 99151-6537,3.9,11,-16.6866579,-49.2661252,,
74905030,18,Restaurante Ki-delicia,,ChIJmctG-LzwXpMRftgNnrIhcIM,"qd.111, R. Jundiá, 14 - Vila A, Foz do Iguaçu - PR, 85860-420",Aparecida de Goiânia,GO,,,,-16.7414163,-49.2669423,,
74905030,19,Restaurante da Deusinha,,ChIJw74A5fT3XpMR6tMq0CX6yRQ,"Av. Barão do R. Branco, quadra 47 - lt 15 - Jardim Vila Boa, Goiânia - GO, 74360-290",Aparecida de Goiânia,GO,+55 62 99432-9576,4.5,11,-16.7297202,-49.3171563,,
74905030,20,Pizzeria Gyn,https://zapdelivery.me/balcaodojhony/item/DG2rf8iEX2,ChIJm71vVd3xXpMRVQYmKToFBjU,"Rua Nova Olinda Qd36 lt15 - Jardim Esmeraldas, Aparecida de Goiânia - GO, 74905-070",Aparecida de Goiânia,GO,+55 62 99475-6132,4.9,18,-16.730920299999998,-49.25908,,
74905030,1,Restaurante Sabor d´Casa,,ChIJ71nTA33xXpMRE3_mzAwVjQs,"R. 24, 406 - St. Central, Goiânia - GO, 74030-060",Aparecida de Goiânia,GO,+55 62 3093-5462,4.6,749,-16.675275199999998,-49.251503799999995,,
74905030,2,Restaurante da Izete,,ChIJx_j98ubwXpMRtaDN7z6biaQ,"Rua S-5 esquina com a, Av. T-14, 1050 - St. Bela Vista, Goiânia - GO, 74823-460",Aparecida de Goiânia,GO,+55 62 99336-1315,4.8,32,-16.7200246,-49.260301899999995,,
74905030,3,Obelisque Bar e Restaurante,http://www.obelisque.com.br/,ChIJwc0Lu1XxXpMRPZO7NfdeuYg,"R. Duzentos e Quarenta e Cinco, 344 - St. Coimbra, Goiânia - GO, 74535-400",Aparecida de Goiânia,GO,+55 62 3291-5051,4.5,1675,-16.680436099999998,-49.280859799999995,,
74905030,4,Simbora Restaurante 24h - Urias,https://www.instagram.com/simbora24h/,ChIJNWg447D2XpMRqoSphpGnMUA,"Av. Rio Branco, 62 - St. Urias Magalhães, Goiânia - GO, 74565-070",Aparecida de Goiânia,GO,+55 62 3210-9090,4.2,2683,-16.6469289,-49.2755728,,
74905030,5,Restaurante Sabores do Nordeste - Marmitex,"https://api.whatsapp.com/send?phone=5562996761737&text=Ol%C3%A1,%20gostaria%20de%20fazer%20um%20pedido",ChIJSy-WrcTxXpMRcav_PK_s-IY,"Rua Conde d'Eu, QD 19 LT 20 CASA 02 - Parque Real de Goiânia, Aparecida de Goiânia - GO, 74910-080",Aparecida de Goiânia,GO,+55 62 99676-1734,4.3,24,-16.7442371,-49.2532869,,
74905030,6,Restaurante Bar,https://website--402257104095131946772-restaurant.negocio.site/,ChIJUeAow-DxXpMRLNHAqVRXID0,"Av São Paulo, Qd41,Lt06 - Jardim Esmeraldas, Aparecida de Goiânia - GO, 74580-220",Aparecida de Goiânia,GO,+55 62 3280-8079,,,-16.7420528,-49.2559559,,
74905030,7,Blends Burger Artesanal,https://instagram.com/blendsgoiania,ChIJ0wCspjnxXpMRMXBYDBD9H8U,"Alameda Imbé, Qd 30 - Lt 06 - Parque Amazonia, Goiânia - GO, 74835-460",Aparecida de Goiânia,GO,+55 62 98487-5800,4.7,611,-16.7348112,-49.2680179,,
74905030,8,Restaurante Sabor Tropical,http://sabor-tropical-restaurante.negocio.site/,ChIJz6BGN_vzXpMRGlWWJ8hwE3s,"Rua 27-A, n 305, R. 27-A, 305 - St. Aeroporto, Goiânia - GO, 74075-340",Aparecida de Goiânia,GO,+55 62 3095-1637,4.5,166,-16.672206799999998,-49.2745688,,
74905030,9,Restaurante Oliveira's,,ChIJASa52F7wXpMRDf4hW7f6O3o,"Av. Gonzaga Jaime, 546 - Vila Redencao, Goiânia - GO, 74845-360",Aparecida de Goiânia,GO,,5,4,-16.7240188,-49.241011099999994,,
74905030,10,Jardim Secreto Restaurante,,ChIJS7x5C_DxXpMRe8c0keYvZ38,"Cherie L'atelier - R. 114-B, 105 fundos - St. Sul, Goiânia - GO, 74085-210",Aparecida de Goiânia,GO,+55 62 98496-1643,,,-16.690910799999997,-49.2454526,,
74905030,11,Girassol restaurante,,ChIJhVa7l_vxXpMRHMoJN7NEEdI,"Alameda Moisés Santana - Vila Redencao, Goiânia - GO, 74850-130",Aparecida de Goiânia,GO,,,,-16.7208674,-49.2413404,,
74905030,12,Danove Restaurante,http://danoverestaurante.com.br/,ChIJcxLG5WX0XpMRsOdLfH0R8_k,"Av. Tocantins, 1290 - St. Aeroporto, Goiânia - GO, 74075-100",Aparecida de Goiânia,GO,+55 62 3224-0563,4.5,468,-16.671395,-49.266268,,
74905030,13,Restaurante Dias,,ChIJV6CPf1X0XpMRNVtPdx4zuNs,"R. Francisco Viléla, 485 - Capuava, Goiânia - GO, 74450-290",Aparecida de Goiânia,GO,,3,7,-16.6514028,-49.3222084,,
74905030,14,Restaurante sabor brasileiro,,ChIJjzioDWX3XpMRix0HWv2PDzg,"Av das bandeiras Qd 24 Lt 14 Nm 662 - Vila Maua, Goiânia - GO, 74323-100",Aparecida de Goiânia,GO,+55 62 99350-8931,4.8,12,-16.6986322,-49.315191,,
74905030,15,Lilian Restaurante,,ChIJd82G4NLwXpMRc5z-3uznOCI,"R. Gaponga - Parque Amazonia, Goiânia - GO, 74835-440",Aparecida de Goiânia,GO,,5,3,-16.7260749,-49.282855,,
74905030,16,Vânia Restaurante,,ChIJN5JRf6PxXpMR23nmd6-75YE,"Rua Igapo, Qd. 195, Lt. 01, nº 802 - Parque Amazonia, Goiânia - GO, 74835-440",Aparecida de Goiânia,GO,+55 62 3092-4860,5,1,-16.7297543,-49.2783142,,
74905030,17,Restaurante Da Sonia,,ChIJWwvf8lD0XpMReMQCNxMM8Ss,"Av. Raposo Taváres, 544 - St. Vila João Vaz, Goiânia - GO, 74450-210",Aparecida de Goiânia,GO,,5,21,-16.6565512,-49.315906899999995,,
74905030,18,Restaurante El Shadaį,,ChIJ1WHGDCn1XpMR28fO9frsW0E,"R. Maria de Oliveira Sampaio - Jardim Balneario Meia Ponte, Goiânia - GO, 74465-140",Aparecida de Goiânia,GO,+55 62 99339-4282,4.3,27,-16.6223703,-49.3024275,,
74905030,19,Restaurante D'casa,http://restaurantedcasa.business.site/,ChIJ9SOqJPTxXpMR-GtAYb71VuA,"Av. Campos Elísios, 890 - Q.218 L. 9 - Jardim Novo Mundo, Goiânia - GO, 74705-020",Aparecida de Goiânia,GO,+55 62 3206-7627,4.3,187,-16.6685201,-49.2189562,,
74905030,20,Sabor da Praça,https://www.instagram.com/sabor_dapraca/,ChIJWbhegz73XpMRV3y292Nyceo,"Rua CD9, S/N - Quadra 22 Lote 02 - Cachoeira Dourada, Goiânia - GO, 74363-130",Aparecida de Goiânia,GO,+55 62 99843-4598,4.6,23,-16.723189599999998,-49.322735699999996,,
74905030,1,Restaurante,,ChIJQd_H7mLxXpMRcFq10Ksi10g,"R. 87 - St. Sul, Goiânia - GO, 74080-290",Aparecida de Goiânia,GO,,,,-16.6906732,-49.2579528,,
74905030,2,Restaurante,,ChIJk-V4VhLwXpMRWBI5PvJVGSo,"R. SC 3 - Parque Santa Cruz, Goiânia - GO, 74860-280",Aparecida de Goiânia,GO,,,,-16.7296487,-49.220962199999995,,
74905030,3,Restaurante Panela Velha,,ChIJ8XVlJ0v0XpMRkQ9wom16PVE,"Rua rocha pombo qd 53 lt18 - São Francisco, Goiânia - GO, 74455-230",Aparecida de Goiânia,GO,+55 62 3299-5841,4.9,15,-16.6683622,-49.323887199999994,,
74905030,4,Nn Restaurante,,ChIJJ9AKHRv4XpMR1d_O31yySNA,"Res. Caraibas, Goiânia - GO",Aparecida de Goiânia,GO,+55 62 99555-5555,3.8,12,-16.7807881,-49.353586899999996,,
74905030,5,Restaurante China,,ChIJMwlXzgjxXpMRKFsSfoG2Opw,"Av. Dep. Jamel Cecílio, 1670 - St. Sul, Goiânia - GO, 74085-580",Aparecida de Goiânia,GO,+55 62 3242-0707,,,-16.6995632,-49.2480092,,
74905030,6,PíoPío Restaurant Goiânia,,ChIJgeZryDzzXpMR9jyj3LHprkM,"Avenida São Jorge Quadra 10 Lote 09 Jardim - Vila Jardim São Judas Tadeu, Goiânia - GO, 74685-490",Aparecida de Goiânia,GO,+55 62 99182-4657,4.2,11,-16.6187412,-49.2551164,,
74905030,7,Boulangerie de France | Padaria e Restaurante,https://www.instagram.com/boulangeriedefrance_/,ChIJc-9fgFjxXpMRvBuAV526-3E,"R. 10, 740 - St. Oeste, Goiânia - GO, 74120-020",Aparecida de Goiânia,GO,+55 62 3242-8643,3.5,128,-16.6864238,-49.2665274,,
74905030,8,Marmitaria do bosque,,ChIJq8D0EQTtXpMRTCFCbUz_WNQ,"Rua Vicente da Fonseca Ribeiro Qd 48, Rua Dom João Alves Santos, número 486 - LT 15, Goiânia - GO, 74780-370",Aparecida de Goiânia,GO,+55 62 99328-7877,4.5,25,-16.6488486,-49.1907843,,
74905030,9,Restaurante Bom Sabor,,ChIJe0h-8IjvXpMRQXiOr1gob_w,"Rua df 217 Q. 26, Lt. 48 - Jardim Dom Fernando II, Goiânia - GO, 74765-260",Aparecida de Goiânia,GO,+55 62 98251-4650,4.7,47,-16.666226299999998,-49.1885966,,
74905030,10,Empório do Sabor Restaurante,,ChIJFQK_pJbzXpMR123SYsY9wBU,"Av. Gov Jose L Almeida Q 25a, 0 - Conj Res Palmares, Goiânia - GO, 74775-013",Aparecida de Goiânia,GO,+55 62 3945-3547,4.3,50,-16.647419,-49.210088999999996,,
74905030,11,Gonçalves Restaurante,http://www.facebook.com/GoncalvesRestauranteLtda,ChIJL0Mzbe_tXpMRJ-EbRTsAnNQ,"av Dom Serafim gomes Q33 L15 - Santo Hilario, GO, 74781-005",Aparecida de Goiânia,GO,+55 62 99353-1933,4.4,487,-16.6475197,-49.189693299999995,,
74905030,12,Restaurante da Karla,,ChIJIdO9De_tXpMRcV0GDTEV_do,"Av. Dom Serafim Gomes Jardim, 2-40 - Santo Hilario, Goiânia - GO, 74780-190",Aparecida de Goiânia,GO,+55 62 3565-1704,4.2,310,-16.6473569,-49.1898865,,
74905030,13,Restaurante Da Nice,,ChIJB9nZ6Ab1XpMRcjmva7CqA5U,"Rua Amador Bueno, Quadra 17, Lote 24, 440 - St. Santos Dumont, Goiânia - GO, 74463-340",Aparecida de Goiânia,GO,+55 62 3597-5314,4.6,556,-16.650254,-49.331298499999995,,
74905030,14,Restaurante Sabor de Goias,https://restaurante-sabor-de-goias.business.site/,ChIJWWDK16r1XpMRY7vem52p6Yw,"R. Persona, 35 - qd 67 lt 21 - Jardim Nova Esperanca, Goiânia - GO, 74465-340",Aparecida de Goiânia,GO,+55 62 3297-6163,4.5,867,-16.6494985,-49.3239871,,
74905030,15,Restaurante e Marmitex,,ChIJiQb5Cp30XpMRAXGinFne0tQ,"Av. Euríco Viana - Lot. Mansoes Goianas, Goiânia - GO, 74593-590",Aparecida de Goiânia,GO,,4,7,-16.6307857,-49.2855554,,
74905030,16,"los cumpadis grill , jantinhas , espetos , comida caseira",,ChIJh383g5n1XpMRJiV_kQ1r1C4,"Av. Morais Jardim, 126 - Cidade Jardim, Goiânia - GO, 74423-100",Aparecida de Goiânia,GO,+55 62 99470-7914,4.6,24,-16.6858932,-49.3132417,,
74905030,17,Restaurante e Marmitaria Lima,https://wa.me/5562992107192?text=Ol%C3%A1%2C+vim+atrav%C3%A9s+do+google.+Qual+o+card%C3%A1pio+de+hoje%3F,ChIJySVs4oj1XpMREY3_sjuiX6g,"Rua Serra Dourada c/Anchieta, Q.20, L.18 - Rodoviário, Goiânia - GO, 74430-440",Aparecida de Goiânia,GO,+55 62 99210-7192,5,16,-16.6704041,-49.306547699999996,,
74905030,18,D'Casa almoço caseiro,,ChIJtZ7uJcH1XpMRXNBg5W8_FGY,"Alameda Vista Alegre, 1097-1031 - São Francisco, Goiânia - GO, 74455-290",Aparecida de Goiânia,GO,+55 62 99660-7316,5,1,-16.6677703,-49.3288077,,
74905030,19,Marmitex,,ChIJH-UZEeb1XpMRJugxvzHc_ZY,"St. Alto do Vale, Goiânia - GO, 74593-210",Aparecida de Goiânia,GO,,5,3,-16.617551499999998,-49.303794499999995,,
74905030,20,Restaurante Nosso Tempero,,ChIJG-VaU2v5XpMRdesUdBfRkBc,"Av. Primeira Avenida - Res. Serra das Brisas, Aparecida de Goiânia - GO, 74947-828",Aparecida de Goiânia,GO,+55 62 98175-1227,5,2,-16.793934,-49.3469834,,
74905030,1,Esquina do Sabor,,ChIJYxU10WPtXpMRufigHxhMSJI,"Avenida Padre Jardim, 61-131 - Santo Hilario, Goiânia - GO, 74780-290",Aparecida de Goiânia,GO,+55 62 98606-6021,5,4,-16.6488323,-49.1890229,,
74905030,2,Dona Maria Almoço Caseiro,,ChIJx7zHV9j3XpMRQFeTZB4SatY,"Av. A, Qd 04 - lt 20 - Vila Lucy, Goiânia - GO, 74320-020",Aparecida de Goiânia,GO,,5,2,-16.695289,-49.3118838,,
74905030,3,Restaurante Sabor Caseiro,,ChIJCb5_HCrsXpMRRQlAsyN4nmk,"Avenida das flores Qt 92 lt 18 casa -04 Recanto das minas Gerais, Goiânia - GO, 74000-000",Aparecida de Goiânia,GO,+55 62 99327-3363,5,1,-16.648896399999998,-49.1565948,,
74905030,4,Sabor de Casa prato feito e Marmitex,,ChIJ-WWH8edXXpMRdIlF0r19XYk,"Av. José Barbosa Réis - St. Andreia, Goiânia - GO, 74354-801",Aparecida de Goiânia,GO,+55 62 99455-5791,4.4,27,-16.8159362,-49.373908899999996,,
74905030,5,Restaurante da Família,,ChIJv-6fcVX1XpMR65zaIrwGksk,"R. Aracajú, 148-290 - St. Vila João Vaz, Goiânia - GO, 74445-020",Aparecida de Goiânia,GO,+55 62 98641-1740,4.7,29,-16.6500903,-49.311310399999996,,
74905030,6,Restaurante do Marcão,,ChIJC-PkeOWNXpMRy6JF8cbuZN4,"Unnamed Road - Condominio Parque dos Cisnes, GO",Aparecida de Goiânia,GO,+55 62 99608-4378,4.5,76,-16.5763449,-49.246941,,
74905030,7,Restaurante do Gaúcho,,ChIJpQozc7iKXpMRe27brUmmevw,"R. JC-16 A, 36-196 - Jardim Curitiba, Goiânia - GO, 74480-510",Aparecida de Goiânia,GO,,4.5,19,-16.6076014,-49.345432699999996,,
74905050,17,Tetê Sabor Goiano,https://www.anasps.org.br/goias/,ChIJOco8CenwXpMRw2XDxS_x8vU,"Av. Bela Vista - Jardim Santo Antônio, Goiânia - GO, 74830-060",Aparecida de Goiânia,GO,+55 62 3275-8752,4.4,285,-16.7264066,-49.2609709,,
74905061,19,Alli Baba Restaurante & Lanchonete,,ChIJC9yKreDxXpMRWBruV_cYuhs,"R. T-38, 1724 - Serrinha, Goiânia - GO, 74835-125",Aparecida de Goiânia,GO,+55 62 3255-8673,4.6,60,-16.7209449,-49.2678826,,
74905065,4,Della Pasta- Sanduiches & Massas,https://dellapasta.negocio.site/?utm_source=gmb&utm_medium=referral,ChIJu35zrhjxXpMR9gkn7h4NWG0,"R. Tupinambás, 1600 - quadra 03 lote 09 - Vila Brasilia, Aparecida de Goiânia - GO, 74905-730",Aparecida de Goiânia,GO,+55 62 98521-9253,5,4,-16.7378657,-49.2589245,,
74905065,8,Recanto da comida caseira,,ChIJfzl7MqLxXpMRmoB7KQhLtsM,"Av sao paulo Q 42L11 Edificio roma - Jardim Esmeraldas, Aparecida de Goiânia - GO, 74905-065",Aparecida de Goiânia,GO,+55 62 99908-7502,,,-16.7332247,-49.260677,,
74905065,10,Lanchonete Sabor & Arte,,ChIJRby7NJTwXpMRN7MmhrxNDbI,"R. Jaguarão - Vila Brasilia, Aparecida de Goiânia - GO, 74905-420",Aparecida de Goiânia,GO,,,,-16.736602899999998,-49.2613359,,
74905065,16,W.R.V Delicia da bahia,https://delicia-da-bahia0.webnode.com/,ChIJ3SsVDwHxXpMRZ2tD73H3zJ8,"Rua maringa, Quadra21A Lote04 Casa01 - Vila Brasilia, Aparecida de Goiânia - GO, 74905-570",Aparecida de Goiânia,GO,+55 62 98194-5131,5,20,-16.7366737,-49.2534819,,
74905065,18,Nobre Paladar,https://www.instagram.com/rest.aurantenobrepaladar/,ChIJtYp25JTxXpMRBHWzQPxghYs,"R. Tapajós, qd54 lt11 - Vila Brasilia, Aparecida de Goiânia - GO, 74905-700",Aparecida de Goiânia,GO,+55 62 99653-0088,4.8,21,-16.7357393,-49.2641163,,
74905070,3,TOQUE DE SABOR,,ChIJJw_an7_xXpMRGp-kD5-dwJ8,"Av. São Paulo - Jardim Santo Antônio, Aparecida de Goiânia - GO, 74905-770",Aparecida de Goiânia,GO,+55 62 98566-4024,5,1,-16.7334566,-49.2602209,,
74905100,1,Pato Bravo Sanduicheria,https://instagram.com/patobravosanduicheria,ChIJa7T5wqjxXpMRFu6UY4BxaMc,"R. Recife com - Sepetiba, Aparecida de Goiânia - GO, 74905-100",Aparecida de Goiânia,GO,+55 62 98268-7587,5,1,-16.7302931,-49.2588873,,
74905100,19,Restaurante E Lanchonete da Francisca Comida Caseira,,ChIJk-KUnDjxXpMRNaVlO6240N4,"Av. 4ª Radial, 738 - St. Pedro Ludovico, Goiânia - GO, 74830-130",Aparecida de Goiânia,GO,,5,6,-16.718440299999997,-49.2574002,,
74905111,20,Restaurante Mc,,ChIJNYa50ezwXpMRA3gKgL1aPdk,"R. 4 - St. das Esmeraldas, Goiânia - GO, 74355-401",Aparecida de Goiânia,GO,,5,2,-16.7313059,-49.2567978,,
74905130,2,Grelhados Marmiteria e Choperia,,ChIJuVhQ0EXxXpMR7A20RAndt_A,"Av. dos Colonizadores - Vila Brasilia, Aparecida de Goiânia - GO, 74905-270",Aparecida de Goiânia,GO,+55 62 99556-6475,,,-16.7400427,-49.2593101,,
74905130,6,Zito's Buffet,,ChIJgS1ZkJnwXpMRxDt3B1vaLdU,"R. Carijós - Vila Brasilia, Aparecida de Goiânia - GO, 74905-260",Aparecida de Goiânia,GO,,,,-16.7437027,-49.259574199999996,,
74905130,10,Temperíssimo Culinária Saudável,http://www.facebook.com/temperissimosaudavel,ChIJlT0-v9DxXpMRl6r8USDDRYo,"R. Paraguassu, 327 - quadra 113 lote 21 - Vila Brasilia, Aparecida de Goiânia - GO, 74905-600",Aparecida de Goiânia,GO,+55 62 99239-5056,5,4,-16.7440671,-49.2646854,,
74905130,15,Fast Grill,,ChIJo3Uvpyz7XpMRjmJ4VSYIJ5Q,"R. das Guianas, 144 - qd 92 lt 10 - Vila Brasilia, Aparecida de Goiânia - GO, 74905-340",Aparecida de Goiânia,GO,+55 62 4103-5571,4.4,30,-16.744027499999998,-49.2619027,,
74905130,17,Boteco do Zé Bar e Restaurante,,ChIJPX9f-prwXpMRZPZ9Eg8IrOU,"Av. São Paulo - Vila Brasilia, Aparecida de Goiânia - GO, 74905-770",Aparecida de Goiânia,GO,+55 62 99247-5726,4.6,611,-16.742873,-49.2558358,,
74905130,6,Comida Caseira,,ChIJabStqJDwXpMRVqaZRBhjuDs,"R. Minuano - Vila Brasilia, Aparecida de Goiânia - GO, 74905-580",Aparecida de Goiânia,GO,,,,-16.7413633,-49.258215,,
74905130,12,Poizé Restaurante,http://instagram.com/poizerestaurante,ChIJ8RDcS3vxXpMRs22rUGzpB5c,"R. Campos do Jordão, quadra 103 - Lote 04 - Vila Sao Tomaz, Goiânia - GO, 74915-495",Aparecida de Goiânia,GO,+55 62 3548-6099,4.5,28,-16.7417719,-49.2779692,,
74905130,13,Varanda Bar e Restaurante,http://www.instagram.com/varandabarerestaurante,ChIJW5AlOCTxXpMR6bqUzxb_u2I,"R. Campos Belos, 453 - St. dos Afonsos, Aparecida de Goiânia - GO, 74915-400",Aparecida de Goiânia,GO,+55 62 3991-7777,4.4,110,-16.7421155,-49.2749587,,
74905150,1,Caldo de cana do juca- Vila Brasilia,,ChIJ-ZIMwv_xXpMRDjLfP9qeD3o,"Avenida Brasília Q:41 - L:3, Aparecida de Goiânia - GO, 74905-190",Aparecida de Goiânia,GO,+55 62 98609-5533,5,8,-16.7424257,-49.2595338,,
74905150,13,Panelinha de Barro,http://panelinha-de-barro-restaurante-bar-e-pizzaria.negocio.site/,ChIJLwft3bjwXpMR8v2fy98gNFI,"Av. Alexandre de Morais, Qd. 09 - Lt. 07 - Parque Amazonia, Goiânia - GO, 74840-160",Aparecida de Goiânia,GO,+55 62 3548-0352,4.2,779,-16.7369233,-49.270154899999994,,
74905160,2,zipetiscos,,ChIJcde4F67xXpMR9ZkEWdW18ew,"Rua Sapucaí qd61 lt11, Aparecida de Goiânia - GO, 74905-670",Aparecida de Goiânia,GO,+55 62 99262-4068,,,-16.7403294,-49.2607801,,
74905160,16,Mari Sabor,,ChIJvzpgqZXwXpMR39ZYDnmN9zI,"R. Tapajós - Vila Brasilia, Aparecida de Goiânia - GO, 74905-700",Aparecida de Goiânia,GO,,,,-16.735474699999997,-49.2617212,,
74905290,18,CARNIVARIA,http://carnivaria.com.br/,ChIJuZY8Pr_wXpMR79VoQQ4UrtU,"Av. Alexandre de Morais, 1814 - Parque Amazonia, Goiânia - GO, 74915-565",Aparecida de Goiânia,GO,+55 62 3212-0924,5,1,-16.7359898,-49.2679997,,
74910010,6,Chica Bacana Restaurante e Lanchonete,,ChIJgfgfmIfwXpMRr8leYhNazUc,"R. EM 1, 3 - Quadra 4 - Vila Sul, Aparecida de Goiânia - GO, 74910-520",Aparecida de Goiânia,GO,+55 64 99205-1960,4,2,-16.7402029,-49.2448106,,
74910010,11,Restaurante Da Tia,,ChIJoSOjzWPwXpMRhDG95Ssi-20,"Jardim Bela Vista, Goiânia - GO, 74860-210",Aparecida de Goiânia,GO,+55 62 3282-1196,4.9,8,-16.734034899999997,-49.2405896,,
74910010,18,Restaurante Real Paladar,,ChIJxx1ez4zxXpMRq-FrXSe6sjA,"Av. Tolêdo, s/n - Quadra i Lote 25 - Vila Santos Dumont, Aparecida de Goiânia - GO, 74910-410",Aparecida de Goiânia,GO,+55 62 98123-2909,4.7,16,-16.747944399999998,-49.249744799999995,,
74910010,19,Aquarius Restaurante - Jardim Luz,http://www.restauranteaquarius.com.br/,ChIJO92WfWjwXpMRyLAag8JDENI,"Avenida Albert Einstein, Quadra 10, Lote 05 s/n - Jardim da Luz, Goiânia - GO, 74850-320",Aparecida de Goiânia,GO,+55 62 3278-8668,4.5,6981,-16.7285745,-49.2343021,,
74910020,3,Divino's Bar e Restaurante - Vila Maria,,ChIJ18twZ4H7XpMRsQW671H2lM0,"R. dos Cravos, qd 10 - lt 04 - Vila Alzira, Aparecida de Goiânia - GO, 74913-230",Aparecida de Goiânia,GO,+55 62 99864-7619,4.5,28,-16.7570913,-49.2518283,,
74910020,5,Restaurante Moreira Fogão a Lenha,,ChIJdSQqx2_6XpMRq4nT6b43hG4,"R. Mandioré, Qdr 35 lote 15 - Vila Alzira, Aparecida de Goiânia - GO, 74913-340",Aparecida de Goiânia,GO,+55 62 3549-9973,4.4,230,-16.7611108,-49.2553391,,
74910020,10,RESTAURANTE SABOR DE CASA,,ChIJf-TTpZ76XpMRZwrUq1BtQmc,"Avenida Santa Rita, QD 13, LT 4, S/N - Jardim Olimpico, Aparecida de Goiânia - GO, 74922-200",Aparecida de Goiânia,GO,+55 62 3598-2519,4.3,120,-16.7480513,-49.228110099999995,,
74910020,11,Deusinha Marmitex,https://www.instagram.com/marmitexdadeusinha/,ChIJY4jYo-b7XpMR7h1wJhqwAHo,"R. Mirim, QD 37 - LT 05 - Jardim Mont Serrat, Aparecida de Goiânia - GO, 74917-540",Aparecida de Goiânia,GO,+55 62 98143-8590,3,2,-16.7618911,-49.2605964,,
74910020,12,Restaurante Bella Cozinha,,ChIJqauuBl77XpMRrHT-AtqtEpo,"Av. Palmeiras de Goiás, 2 - Vila Alzira, Aparecida de Goiânia - GO, 74913-410",Aparecida de Goiânia,GO,+55 62 98274-4791,4.5,65,-16.7618157,-49.255860899999995,,
74910020,13,Restaurante America,,ChIJqXiegPT6XpMRRLzVcxuAnqo,"R. Castanheira, 456-580 - Jardim dos Buritis, Aparecida de Goiânia - GO, 74923-380",Aparecida de Goiânia,GO,+55 62 3282-0225,4.2,72,-16.768178,-49.2387516,,
74910020,5,Texas Restaurante e Bar,https://www.instagram.com/texasrestauranteebar/,ChIJ9Sss53fwXpMRAnJUjHjkUsQ,"Av. W-1, 001 - Sitios Santa Luzia, Aparecida de Goiânia - GO, 74922-460",Aparecida de Goiânia,GO,+55 62 3094-7077,4.4,1525,-16.744725499999998,-49.2323351,,
74910020,6,MONTEIRO’S RESTAURANTE,https://monteiros_restaurante.com/,ChIJoft1O8b7XpMRwY4gfFDDfm0,"Av. Independência, qd 17 - lt 14 - Nova Brasília, Aparecida de Goiânia - GO, 74917-150",Aparecida de Goiânia,GO,+55 62 99861-8903,5,2,-16.7563589,-49.2717232,,
74910020,7,Bar e Restaurante Bom Sabor,,ChIJAzt72HvwXpMRzMqKzQQpUpU,"R. Aruanã, 1 - Jardim Bela Vista, Aparecida de Goiânia - GO, 74912-260",Aparecida de Goiânia,GO,,4.4,56,-16.7407173,-49.2365567,,
74910020,8,Comida Caseira da Maria,,ChIJuQ9TQ9f7XpMRU-0JRsRsQfU,"Av. Newton Marquês Ferreira, Qd 14 - Lt 51 - Conj. Cruzeiro do Sul, Aparecida de Goiânia - GO, 74917-210",Aparecida de Goiânia,GO,+55 62 99356-6785,,,-16.7581941,-49.2728945,,
74910020,10,Lanchonete e restaurante souza,,ChIJr5Ojakf7XpMR8ujt3Z8Vzr0,"Jardim dos Buritis, Aparecida de Goiânia - GO, 74923-570",Aparecida de Goiânia,GO,+55 62 98255-5673,4.9,18,-16.7676132,-49.235012999999995,,
74910060,18,DRAGONBURGUER DELIVERY,,ChIJY12cne_xXpMRO2B0VsKgtYo,"Av. Frederico O. Grande - Parque Real de Goiânia, Aparecida de Goiânia - GO, 74910-120",Aparecida de Goiânia,GO,+55 62 99956-1252,3,2,-16.746381799999998,-49.2503525,,
74910100,2,Gato de Botas Sanduicheria,,ChIJHW5CbZ3xXpMRzSKvoEPSQ4M,"Av. Frederico O. Grande, Qd. 26 - Lt. 12 - Parque Real de Goiânia, Aparecida de Goiânia - GO, 74910-120",Aparecida de Goiânia,GO,+55 62 99270-1850,3.9,11,-16.7444648,-49.2511474,,
74910105,18,Restaurante e Lanchonete Manancial,https://restaurante-manancial.negocio.site/,ChIJpfZcLFzwXpMRQcptZBrfjp4,"com - Av. Laplace, Rua Couto de Magalhães, Goiânia - GO, 74770-290",Aparecida de Goiânia,GO,+55 62 99318-6132,4.5,11,-16.7246992,-49.2381307,,
74910105,20,Restaurante Quintal de Vó,,ChIJsw1kjbLxXpMRRtn4pNszhKs,"R. Leopoldo de Bulhões, QD.73 - LT.04 - Nova Brasília, Aparecida de Goiânia - GO, 74912-570",Aparecida de Goiânia,GO,+55 62 99119-3320,5,11,-16.7435847,-49.239788499999996,,
74910107,6,Tia Marta Restaurante,https://instagram.com/tiamartarestaurante?igshid=1pnnj3g9k4l3,ChIJ3Y8i2gvxXpMREseDQXK4BGU,"R. Rui Barbosa, QD.61 - Lt 05 - Vila Santa, Aparecida de Goiânia - GO, 74912-620",Aparecida de Goiânia,GO,+55 62 3598-1543,4.9,7,-16.7426121,-49.2388883,,
74910107,17,Skininha restaurante e bar,,ChIJkdjHwunxXpMRs88CN3tYtFE,"Av. Bela vista qd.u2, lt .12 - Jardim Bela Vista, Goiânia - GO, 74863-050",Aparecida de Goiânia,GO,+55 62 3251-2729,3.5,4,-16.7357652,-49.230338599999996,,
74910107,18,Celeiro Restaurante - jardim bela vista,https://celeirorestauranteemarmitaria.negocio.site/?utm_source=gmb&utm_medium=referral,ChIJ-WH_6GbxXpMRgcLWCnIxCCM,"R. Aruanã, Qd 27 - Lt 12 - Jardim Bela Vista, Aparecida de Goiânia - GO, 74912-260",Aparecida de Goiânia,GO,+55 62 98305-7983,4.7,36,-16.738881499999998,-49.2363649,,
74910127,13,Empório Restaurante & Cia Marmitaria,,ChIJ_-IeRUrxXpMRcb961QbMt78,"R. Visc. de Barbacena - Parque Real de Goiânia, Aparecida de Goiânia - GO, 74910-107",Aparecida de Goiânia,GO,+55 62 98309-3543,,,-16.7406385,-49.249791599999995,,
74910205,2,Imperial foodbeer,,ChIJWyYfrlP7XpMRjZQeUcJQE40,"Av. Mangueiras Qd. 14 Lts 09/10 - Vila Alzira, Aparecida de Goiânia - GO, 74913-360",Aparecida de Goiânia,GO,+55 62 4107-1025,4,7,-16.758618,-49.2535368,,
74910205,9,RESTAURANTE VITORIA,,ChIJ4W7js1v6XpMReodVSSauU8U,"R. Colombo Baiochi Filho - Vila Maria, Aparecida de Goiânia - GO, 74919-399",Aparecida de Goiânia,GO,,,,-16.7754418,-49.2502849,,
74910205,10,Restaurante Dos Amigos,,ChIJYeDNT8D7XpMRLsfaSzpWadM,"R. 39, quadra 37 - lote 17 casa 2 - Jardim Bonança, Aparecida de Goiânia - GO, 74919-280",Aparecida de Goiânia,GO,+55 62 99419-1849,4,7,-16.7697668,-49.2535173,,
74910205,16,Assados na brasa,,ChIJm2sEOMz7XpMRr0QhtqESWLE,"Av. das Mangueiras, Quadra 46 - Lote 08 - Vila Alzira, Aparecida de Goiânia - GO, 74913-360",Aparecida de Goiânia,GO,+55 62 99123-1109,4,4,-16.7607124,-49.258786799999996,,
74910205,18,Esquina do sabor vila Alzira,https://instagram.com/esquinadosaborltda?igshid=MzRlODBiNWFlZA==,ChIJ70tO6ST7XpMRwPRBlIbcKCA,"Av. das Mangueiras, quadra 42 - lote 05 - Vila Alzira, Aparecida de Goiânia - GO, 74913-360",Aparecida de Goiânia,GO,+55 62 98125-1704,5,25,-16.7614095,-49.260024699999995,,
74910205,19,Comida caseira,,ChIJvSBysbv7XpMRLH0v1xraUG0,"Av. W-5 - Jardim Olimpico, Aparecida de Goiânia - GO, 74922-070",Aparecida de Goiânia,GO,+55 62 98241-7561,4,8,-16.7524206,-49.224021199999996,,
74910205,20,Restaurante Eskinão do Sabor,,ChIJPdKfRyf5XpMRKH5vJZ17M3k,"Av. Juscelino Kubitscheck, Qd 21 - Lt L 1 - Vila Maria, Aparecida de Goiânia - GO, 74919-420",Aparecida de Goiânia,GO,+55 62 98185-3441,5,17,-16.768288,-49.239969699999996,,
74910205,14,Restaurante Costela Gaucha,https://www.instagram.com/restaurantecostelagaucha/,ChIJZUWv6HnwXpMR4Eu-2f9M3Ig,"Rua 44, Qd 38 Lt 10 - Jardim Bela Vista, Aparecida de Goiânia - GO, 74912-160",Aparecida de Goiânia,GO,+55 62 3532-4123,4.4,777,-16.7415379,-49.2343118,,
74910520,7,Butiquim Restaurante,,ChIJX0Rr55PxXpMRpYIpaOlWPQI,"Av. Bela Vista, 729 - Jardim Bela Vista, Goiânia - GO, 74912-261",Aparecida de Goiânia,GO,+55 62 3087-2119,5,1,-16.733904499999998,-49.240747,,
74910560,8,MN Burguer,https://www.instagram.com/mnburguer/?hl=pt-br,ChIJK1L9QE7xXpMRda9tADDXz4I,"R. EM 15, QD.3 - lt 7 - Vila Sul, Aparecida de Goiânia - GO, 74910-650",Aparecida de Goiânia,GO,+55 62 99146-6974,5,2,-16.739160599999998,-49.2476513,,
74910570,3,Tempero lá de casa,,ChIJV-DitrrxXpMRkKX4Do0wRr8,"R. 19, qd 48 - LT 01 - Jardim Santo Antônio, Goiânia - GO, 74853-080",Aparecida de Goiânia,GO,+55 62 99900-1542,4,1,-16.7310657,-49.2449643,,
74910570,20,Quintal de Casa Restaurante,,ChIJ-Yayqv7xXpMRGNfHEoSo9I8,"R. Alm. Barroso, sn - casa 2 lote 8 - Jardim da Luz, Goiânia - GO, 74850-330",Aparecida de Goiânia,GO,+55 62 99209-8666,4.5,21,-16.7276574,-49.2321585,,
74910610,2,Elite Burger House,,ChIJvyNRJWHxXpMRXvFGZd01_pA,"R. EM 15 - Vila Sul, Aparecida de Goiânia - GO, 74910-650",Aparecida de Goiânia,GO,+55 62 99909-2542,4.1,315,-16.7395393,-49.2480263,,
74911265,18,Grill Restaurante,,ChIJT0i7kqPxXpMRpNFmEkWcDm0,"Alameda João Elías da Silva Caldas, Qd.95 - Lt 21 - St. Pedro Ludovico, Goiânia - GO, 74825-080",Aparecida de Goiânia,GO,,,,-16.719142599999998,-49.2541593,,
74911270,16,Pachecosbar,,ChIJaaPkEovwXpMRsKMg9CMo-qI,"Jardim Santo Antônio Avenida do Líbano - Jardim Santo Antonio, Goiânia - GO, 74853-050",Aparecida de Goiânia,GO,,4.6,39,-16.7311375,-49.2472876,,
74911275,9,Açaí e sorvete atacado Tudo meu,,ChIJ6_HE8JLwXpMR1rDuib8edbU,"Supermercados Brasil - Av. Rudá, s/n - Jardim Santo Antônio, Aparecida de Goiânia - GO, 74905-760",Aparecida de Goiânia,GO,+55 62 98644-4705,4.8,5,-16.7334572,-49.2555701,,
74911430,13,Semeando Verdade Panificadora,,ChIJP9Jsn5PwXpMRB9O8MnbAFts,"Avenida Rudá, Quadra 38 A, Lote 1, Av. Rudá, Quadra 38 A, Lote 1, s/n - s/n - Sala 6 - Vila Brasilia, Aparecida de Goiânia - GO, 74905-760",Aparecida de Goiânia,GO,+55 62 3584-4675,4.7,526,-16.734544,-49.2576082,,
74911485,4,Empório da Alimentação,https://www.facebook.com/EmporioDaAlimentacao,ChIJhxiCFIzwXpMR3vRO2wLffCQ,"Av. Anápolis, 16 - quadra 61, lote 16 - Conj. Liberdade, Aparecida de Goiânia - GO, 74911-360",Aparecida de Goiânia,GO,+55 62 3097-1750,4.5,337,-16.733607199999998,-49.2497269,,
74911668,12,Tapera Véia hamburgueria,,ChIJlTNlNDPxXpMRSZXAZZ-l2ac,"R. 40 A - Conj. Liberdade, Aparecida de Goiânia - GO, 74911-670",Aparecida de Goiânia,GO,+55 62 99410-5959,5,20,-16.7337477,-49.251840099999995,,
74911750,20,Sanduicheria MG Burguer 2,https://midiavista.com.br/mg-burguer-vila-brasilia/,ChIJOeztZQ7xXpMRaZyqSkdXYuw,"Av. Anápolis, 441 - Vila Brasilia, Aparecida de Goiânia - GO, 74911-360",Aparecida de Goiânia,GO,+55 62 98410-7177,4.6,19,-16.7376572,-49.2553907,,
74912010,2,Restaurante UAI-Food,,ChIJed7CPQbxXpMRZii5z6Cc-jI,"R. 26-A, Qd 04 - lote 1/5, Apt 101B - Jardim Bela Vista, Aparecida de Goiânia - GO, 74912-032",Aparecida de Goiânia,GO,,2.3,3,-16.7352948,-49.2408869,,
74912010,10,Restaurante e Pamonharia Frutos do Milho,,ChIJ0QIX7vrxXpMRdVURJYLNklc,"R. Aruanã, S/N - Jardim Bela Vista, Goiânia - GO, 74863-040",Aparecida de Goiânia,GO,+55 62 3532-4364,3.9,114,-16.7330438,-49.2353721,,
