CEP,Position,Title,Link,Place ID,Address,City,State,Phone,Rating,Reviews,Latitude,Longitude,UF,Location
88010000,1,Trattoria Carbone,https://wa.me/+554830540731,ChIJ0cAOoYk5J5URWlxEtiYjphk,"R. Felipe Schmidt, 869 - Centro, Florianópolis - SC, 88010-002",Florianópolis,SC,+55 48 3054-0731,4.4,205,-27.592754199999998,-48.5582694,,
88010000,2,Tascaria,https://www.instagram.com/tascariaoficial,ChIJk5VTwx45J5URW6zY16xEx0s,"R. Hoepcke, 168 - Centro, Florianópolis - SC, 88010-130",Florianópolis,SC,+55 48 99200-0818,4.4,57,-27.593142,-48.558447099999995,,
88010000,3,UNIZUSHI,,ChIJT_ZTyAs5J5URtMB79Le5CFw,"R. Hoepcke, 168 - box 08 - Centro, Florianópolis - SC, 88010-130",Florianópolis,SC,,4.5,24,-27.5931876,-48.5584753,,
88010000,4,Lovster & Beer - Top Market,,ChIJM5BLIxs5J5UR5Y0dYr-1Ck4,"R. Hoepcke, 168 - box 08 - Centro, Florianópolis - SC, 88010-130",Florianópolis,SC,,4.9,11,-27.593086699999997,-48.5584753,,
88010000,5,B.G.B.,,ChIJNX0zMc85J5UR-3BsbKq-5LA,"R. Hoepcke, 168 - Centro, Florianópolis - SC, 88010-130",Florianópolis,SC,,3.1,9,-27.593142,-48.558447099999995,,
88010000,6,Olivia Cucina,https://linktr.ee/oliviacucina,ChIJbVunRxI5J5URkYlg_x1yLK4,"R. Henrique Valgas, 112 - Galpão 02 - Centro, Florianópolis - SC, 88010-282",Florianópolis,SC,+55 48 99194-1808,4.7,953,-27.5950642,-48.5588663,,
88010000,7,Taberna Ibérica,http://www.tabernaiberica.com.br/,ChIJG1E63h84J5UR63AtSGTQj84,"R. Felipe Schmidt, 1333 - Centro, Florianópolis - SC, 88010-002",Florianópolis,SC,+55 48 3225-0913,4.7,1149,-27.5909364,-48.5614454,,
88010000,8,Vitória Bar e Restaurante,,ChIJd7p1TyA4J5URG5uz2ft4xAg,"R. Conselheiro Mafra, 704 - Centro, Florianópolis - SC, 88010-102",Florianópolis,SC,+55 48 3225-0819,4.5,39,-27.5947632,-48.556771999999995,,
88010000,9,Marina Comida Árabe,https://marina-comida-arabe.negocio.site/,ChIJZ0ec0iE4J5URNpso6fT6uFM,"Rua Padre Roma, 319 - Centro, Florianópolis - SC, 88010-090",Florianópolis,SC,,4.5,328,-27.5934797,-48.5561733,,
88010000,10,China In Box Florianópolis,https://www.chinainbox.com.br/,ChIJo5dhnR84J5URCrSSDO4m5yU,"Av. Rio Branco, 197 - CASA - Centro, Florianópolis - SC, 88015-201",Florianópolis,SC,+55 48 99117-1033,4.1,431,-27.5920712,-48.5563833,,
88010000,11,Camarão Carioca Centro,http://www.camaraocarioca.com.br/,ChIJuz2R-_k5J5UR6i-aTTxmt7M,"Av. Rio Branco, nº288 - Centro, Florianópolis - SC, 88015-200",Florianópolis,SC,+55 48 3209-9777,4.1,239,-27.592283499999997,-48.5554519,,
88010000,12,Píer 54 Restaurante,http://pier54.com.br/,ChIJk61sHfY3J5URYDe4bmG5lEc,"Av. Osvaldo Rodrigues Cabral, 1251 - Centro, Florianópolis - SC, 88015-710",Florianópolis,SC,+55 48 99662-6260,4.6,1024,-27.5935234,-48.5627815,,
88010000,13,Dona Delícia Restaurante & Bar,,ChIJA9Y9niE4J5URt5d77T-rETM,"R. Felipe Schmidt, 554 - Centro, Florianópolis - SC, 88010-001",Florianópolis,SC,+55 48 3225-8376,4.5,482,-27.5947075,-48.5548307,,
88010000,14,Restaurante Santo André,,ChIJqzaMWiE4J5URdw7xfr9f9p0,"R. Francisco Tolentino, 382 - Centro, Florianópolis - SC, 88010-200",Florianópolis,SC,+55 48 3225-8320,4.4,142,-27.596363699999998,-48.5541682,,
88010000,15,Dona Delícia Restaurante,,ChIJlT55NSA4J5URnLfoHetQx8E,"Rua Padre Roma, 240 - Centro, Florianópolis - SC, 88010-090",Florianópolis,SC,+55 48 3028-1874,4.5,710,-27.5942214,-48.5563029,,
88010000,16,Bar e Restaurante PIO XII,,ChIJkU-y0SM4J5URzuLpVn7uhiw,"R. Felipe Schmidt, 470 - Centro, Florianópolis - SC, 88010-001",Florianópolis,SC,+55 48 3222-3441,4.5,65,-27.595051299999998,-48.554169699999996,,
88010000,17,Restaurante Alecrim Pimenta,,ChIJy1ZAzSE4J5URU8ar-BCEj-g,"Rua Padre Roma, 313 - Centro, Florianópolis - SC, 88010-090",Florianópolis,SC,+55 48 4009-3828,4.6,631,-27.5935912,-48.5561769,,
88010000,18,Bar e Restaurante Estrela do Oriente,,ChIJzY5Hwh44J5URpUjah8947KI,"R. Esteves Júnior, 711 - Centro, Florianópolis - SC, 88015-130",Florianópolis,SC,+55 48 3371-5293,3.7,6,-27.588952,-48.553475,,
88010000,19,Più Bello Galeteria,,ChIJ36lbTbo3J5URQrp088_h90k,"R. Henrique Valgas, 112 - Galpão 01 - Centro, Florianópolis - SC, 88010-282",Florianópolis,SC,+55 48 99194-1808,4.6,119,-27.5950642,-48.5588663,,
88010000,20,Casa Garni Restaurante,https://instagram.com/casa.garni?igshid=xylz4v2fwqba,ChIJuQOgjr05J5URAQ6L3eomXFk,"Rua Padre Roma, 291 - Centro, Florianópolis - SC, 88010-090",Florianópolis,SC,+55 48 98816-7806,4.7,121,-27.593716299999997,-48.5563442,,
88010000,1,Colher de Pau Restaurante,https://www.instagram.com/colherdepauflorianopolis/,ChIJWVBPDyQ4J5URDodoODx-GEo,"R. Jerônimo Coelho, 60 - Box 06 - Centro, Florianópolis - SC, 88010-030",Florianópolis,SC,+55 48 3039-0108,3.5,428,-27.5971992,-48.552688499999995,,
88010000,2,"Deli - Sucos, Saladas, Cafés e Sanduíches",,ChIJRbkkrrc5J5URVCcg2lQdbrw,"R. Felipe Schmidt, 835 - Centro, Florianópolis - SC, 88010-001",Florianópolis,SC,+55 48 99199-7341,4.5,146,-27.5934958,-48.557161199999996,,
88010000,3,Restaurante e Lanchonete Empório B'min,,ChIJrdaMpFM5J5URpdmBm2H3E6Y,"Av. Paulo Fontes, 1101 - Centro, Florianópolis - SC, 88010-278",Florianópolis,SC,+55 48 3222-1239,2.8,30,-27.5971676,-48.558300599999995,,
88010000,4,Du Zeca - Bar e Restaurante,,ChIJgx2xZx84J5URucUnSVG1M6U,"Av. Rio Branco, 313 - Centro, Florianópolis - SC, 88015-201",Florianópolis,SC,+55 48 3211-8132,4.6,870,-27.591967099999998,-48.555137599999995,,
88010000,5,Pizzaria Bel Mangio,http://www.belmangio.com.br/,ChIJgTtuPx44J5URgPLXlCR3bl8,"R. Des. Arno Hoeschl, 269 - Centro, Florianópolis - SC, 88015-620",Florianópolis,SC,+55 48 3025-1040,4.7,1378,-27.589992,-48.5576022,,
88010000,6,Al Amir Comida Árabe,,ChIJQdMSQkA3J5URqzjaLHVQs24,"Al. Annita Hoepcke da Silva - Centro, Florianópolis - SC, 88010-400",Florianópolis,SC,,4.4,30,-27.5946645,-48.5590956,,
88010000,7,Vacuno Carnes Nobres - Armazém Rita Maria,https://www.instagram.com/vacunocarnes/,ChIJCyqgdKg3J5URkzYhXAHDiyU,"Al. Annita Hoepcke da Silva, 112 - Centro, Florianópolis - SC, 88010-282",Florianópolis,SC,+55 48 99913-6440,4,108,-27.5945555,-48.5592957,,
88010000,8,Restaurante Pacheco's,http://instagram.com/restaurante__pachecos?igshid=4hwk17nt490z,ChIJcftA1yM4J5URPa2SwWPV7RY,"R. Pedro Ivo, 241 - Centro, Florianópolis - SC, 88010-070",Florianópolis,SC,+55 48 3028-4568,4.6,157,-27.594778899999998,-48.554569699999995,,
88010000,9,Noir Sushi,https://noirsushi.com.br/,ChIJYW5ptcw3J5URF1a5Ithp8_g,"R. Henrique Valgas - Centro, Florianópolis - SC, 88010-400",Florianópolis,SC,,3.6,36,-27.5946812,-48.559052,,
88010000,10,Família Tagliari Restaurante,http://www.familiatagliari.com.br/,ChIJI7Kvex44J5URPlYsvMrWXGI,"R. Alm. Lamego, 1158 - Centro, Florianópolis - SC, 88015-601",Florianópolis,SC,+55 48 3024-5759,4.5,667,-27.588753999999998,-48.5565304,,
88010000,11,Restaurante Central,https://www.instagram.com/central_floripa/,ChIJ0wxYEiI4J5UROFOSXz-csJs,"R. Esteves Júnior, 242 - Centro, Florianópolis - SC, 88015-130",Florianópolis,SC,+55 48 3222-8808,4.6,989,-27.5923122,-48.5527023,,
88010000,12,Porto Restaurante,http://www.portorestaurante.com.br/,ChIJOxNuqxg4J5URECVtmVwTIpM,"Av. Rio Branco, 467 - Centro, Florianópolis - SC, 88015-204",Florianópolis,SC,+55 48 3050-6400,4.2,416,-27.591625399999998,-48.5537992,,
88010000,13,Restaurante Carne Na Brasa,,ChIJO1I2BSA4J5UROcbFRMxF9sQ,"R. Conselheiro Mafra, 495 - Centro, Florianópolis - SC, 88010-100",Florianópolis,SC,+55 48 3223-5095,4.3,505,-27.5958674,-48.5550303,,
88010000,14,Mestre Hu Restaurante,,ChIJaYMNDiE4J5URdyvMHGJeTuk,"R. Conselheiro Mafra, 540 - Centro, Florianópolis - SC, 88010-000",Florianópolis,SC,+55 48 99915-7813,4.3,39,-27.5954551,-48.5552967,,
88010000,15,Restaurante Cota e Carioca da Gema,,ChIJnc8WByE4J5URRfwMbkIxq-w,"R. Conselheiro Mafra, 594 - Centro, Florianópolis - SC, 88010-100",Florianópolis,SC,+55 48 99966-7451,4.6,74,-27.5952766,-48.5557869,,
88010000,16,Estilo Restaurante,,ChIJKfNzBiE4J5UR7jwzyiGlv_I,"R. Conselheiro Mafra, 400 - Centro, Florianópolis - SC, 88010-101",Florianópolis,SC,+55 48 3030-2237,4.6,142,-27.59601,-48.5540223,,
88010000,17,Restaurante Shopping Esteves,https://www.instagram.com/restauranteesteves/,ChIJH-a44H45J5URkv91esg529w,"R. Esteves Júnior, 237 - Centro, Florianópolis - SC, 88015-130",Florianópolis,SC,+55 48 3371-2500,4.4,43,-27.5924704,-48.5528894,,
88010000,18,Pirão Restaurante,https://www.instagram.com/pirao.floripa/,ChIJ7ZCFNJ85J5URpTTnrJDmbR0,"Vão Central do Mercado Público de Florianópolis - R. Jerônimo Coelho, 60 - Box 31A - Centro, Florianópolis - SC, 88010-030",Florianópolis,SC,+55 48 99804-2644,1.8,11,-27.5971992,-48.552688499999995,,
88010000,19,Forneria Catarina,http://www.forneriacatarina.com.br/,ChIJYyHBKBk4J5URIsEKSh6ijcI,"R. Esteves Júnior, 604 - Centro, Florianópolis - SC, 88015-130",Florianópolis,SC,+55 48 3333-0707,4.8,1581,-27.5890117,-48.5531759,,
88010000,20,Box 32,http://www.box32.com.br/cardapio-1,ChIJF3yeVzs4J5URUAQ_xnF-G18,"Ala Sul - Mercado Público Municipal de Florianó Rua Jerônimo Coelho, 60 Box 04S - Centro, Florianópolis - SC, 88010-030",Florianópolis,SC,+55 48 3037-2661,4.3,2269,-27.5973585,-48.5528188,,
88010000,1,Restaurante Pimenta Rosa,,ChIJ2wgryCM4J5URkAHlBU3o06Q,"R. Álvaro de Carvalho, 341 - Centro, Florianópolis - SC, 88010-040",Florianópolis,SC,,4.5,453,-27.5945149,-48.552518,,
88010000,2,ws restaurante,,ChIJQxXECiI4J5URa_qDBxkwLvQ,"Av. Rio Branco, 570 - Centro, Florianópolis - SC, 88015-200",Florianópolis,SC,+55 48 99967-1680,4.3,12,-27.5917843,-48.5525971,,
88010000,3,Delícias Portuguesas,https://www.instagram.com/delicias.portuguesas/,ChIJIVDRWjs4J5URgjKNVclW6NY,"R. Visc. de Ouro Preto, 559 - Centro, Florianópolis - SC, 88020-040",Florianópolis,SC,+55 48 3224-6448,4.6,591,-27.5922469,-48.5468897,,
88010000,4,Lisboeta by Livorno,https://lisboeta-by-livorno.negocio.site/?utm_source=gmb&utm_medium=referral,ChIJ3wVlVfo5J5URrOXYg7Bea7Y,"Av. Rio Branco, 784 - Centro, Florianópolis - SC, 88015-202",Florianópolis,SC,,4.9,110,-27.591862499999998,-48.550371999999996,,
88010000,5,Restaurante Sobrado,,ChIJ9UYWLiA4J5URwvqR6OBnQNE,"R. Felipe Schmidt, 268 - Centro, Florianópolis - SC, 88010-000",Florianópolis,SC,+55 48 3324-1049,4.7,192,-27.5960631,-48.5525952,,
88010000,6,Restaurante Maria Gourmet,https://instagram.com/mariagourmet.floripa?igshid=MzRlODBiNWFlZA==,ChIJbRbZCyQ4J5UR2KbuIWEqhKQ,"R. Jerônimo Coelho, 95 - Centro, Florianópolis - SC, 88010-030",Florianópolis,SC,+55 48 99149-5350,4.1,197,-27.5966508,-48.552949899999994,,
88010000,7,Restaurante Fortaleza da Ilha,,ChIJCxm_KWk5J5URggpxdRDbJc4,"R. Esteves Júnior, 247 - Centro, Florianópolis - SC, 88015-130",Florianópolis,SC,+55 48 99833-9885,4.4,22,-27.5922561,-48.5529021,,
88010000,8,Ponte 100 Lanches,,ChIJ66DwFCA4J5UROkp3x_Li_3I,"133, R. Francisco Tolentino, 1 - Centro, Florianópolis - SC, 88010-095",Florianópolis,SC,+55 48 3222-0039,4.4,913,-27.5945941,-48.557963199999996,,
88010000,9,Restaurante Comer Bem,,ChIJnciSqdc5J5URiPpCTbPyUnw,"R. Felipe Schmidt - Centro, Florianópolis - SC, 88010-400",Florianópolis,SC,+55 48 3204-7797,4.6,570,-27.597014299999998,-48.551382499999995,,
88010000,10,Café Quintal,https://www.instagram.com/cafequintal_/,ChIJ3x6XCko3J5URvfCsuPXL0KQ,"Al. Annita Hoepcke da Silva, 112 - Centro, Florianópolis - SC, 88015-130",Florianópolis,SC,+55 48 99194-1808,3.6,21,-27.594611,-48.5592949,,
88010000,11,Macarronada Italiana,http://www.macarronada.com.br/,ChIJ18nBVGBEJ5URdECjfswHxL4,"Av. Jorn. Rubéns de Arruda Ramos, 2458 - Centro, Florianópolis - SC, 88015-702",Florianópolis,SC,+55 48 3223-2666,4.6,4148,-27.584618,-48.5466921,,
88010000,12,Restaurante Villa,,ChIJc-wKjCM4J5URDCUyDM074Ws,"R. Jerônimo Coelho, 180 - Centro, Florianópolis - SC, 88010-030",Florianópolis,SC,+55 48 3025-7079,4.7,41,-27.5960173,-48.5522522,,
88010000,13,TERRAÇO BELLA LUNA,https://restaurants.accor.com/pt-br/restaurant-0701_R001-terraco-bella-luna-florianopolis.shtml,ChIJ2-UD3h84J5URJUbyi0ZmtGE,"R. Felipe Schmidt, 1102 - Centro, Florianópolis - SC, 88010-002",Florianópolis,SC,,4,4,-27.5917563,-48.5592565,,
88010000,14,Restaurante Porto da Ilha,,ChIJc5UMPsk5J5UR-O1x4RaPYXk,"R. Dom Jaime Câmara, 43 - Centro, Florianópolis - SC, 88015-120",Florianópolis,SC,+55 48 3229-3000,4.6,14,-27.592475999999998,-48.5519877,,
88010000,15,Porto Restaurante,http://www.portorestaurante.com.br/,ChIJ_fFtS5k5J5URwGVwpJTRxAA,"R. Bocaiúva, 1528 - Centro, Florianópolis - SC, 88015-530",Florianópolis,SC,+55 48 3091-2523,4.2,58,-27.587612999999997,-48.55312,,
88010000,16,Central Restaurante,http://centralrestaurante.com.br/,ChIJq1AbeyM4J5URgfZuGknD10U,"R. Vidal Ramos, 174 - Centro, Florianópolis - SC, 88010-320",Florianópolis,SC,+55 48 3222-9541,4.5,590,-27.5951471,-48.5507948,,
88010000,17,Restaurante Forno Milano,http://fornomilano.com.br/,ChIJox5AJRc4J5URm6A8yYmVakI,"R. Esteves Júnior, 546 - Centro, Florianópolis - SC, 88015-130",Florianópolis,SC,+55 48 3307-9316,4.5,912,-27.589560499999997,-48.5527862,,
88010000,18,Restaurante Kaffa,http://www.restaurantekaffa.com.br/,ChIJWRHGIRc4J5URXnrOYmKFjVc,"R. Rafael Bandeira, 337 - Centro, Florianópolis - SC, 88015-450",Florianópolis,SC,+55 48 3223-4327,4.6,1029,-27.5858024,-48.5466431,,
88010000,19,Restaurante Zezo's,,ChIJr2gywyI4J5UREYSR-dlcG38,"R. Dom Jaime Câmara, 282 - Centro, Florianópolis - SC, 88015-120",Florianópolis,SC,+55 48 3222-1829,4.5,163,-27.592460799999998,-48.5500553,,
88010000,20,Magnolia Restaurante,,ChIJV066iiQ4J5URtK2czh6ov88,"R. Felipe Schmidt, 107 - Centro, Florianópolis - SC, 88010-000",Florianópolis,SC,+55 48 3025-6327,4.6,225,-27.5971038,-48.5512788,,
88010000,2,Restaurante Kanimambo,,ChIJvQxF-iI4J5URvTKWp_F19SA,"R. Antônio Dib Mussi, 443 - Centro, Florianópolis - SC, 88015-110",Florianópolis,SC,+55 48 3228-3400,4.7,621,-27.592832299999998,-48.5509722,,
88010000,3,Restaurante Paladar,,ChIJ7WEabiM4J5URKPWwK5on2Us,"R. Deodoro, 191 - Sala 1 - Centro, Florianópolis - SC, 88010-020",Florianópolis,SC,+55 48 3222-2060,4.5,181,-27.596319899999997,-48.551597,,
88010000,4,Restaurante Apolo,,ChIJs2k4gSM4J5UR_IQNlAzQvoM,"R. Ten. Silveira, 199 - Centro, Florianópolis - SC, 88010-300",Florianópolis,SC,+55 48 3222-3323,4.3,293,-27.5958188,-48.5514904,,
88010000,5,Franz Cabaret,https://www.franzcabaret.com/,ChIJpaU53V05J5URgmSCM5eWj2U,"R. Cristóvão Nunes Píres, 84 - Centro, Florianópolis - SC, 88010-120",Florianópolis,SC,+55 48 99111-0928,4.7,379,-27.5942941,-48.5586664,,
88010000,6,Shopping Comida Árabe - Café & Restaurante,,ChIJm23e2YU5J5UROv7nWgdX4YE,"R. Sete de Setembro, 165 - Centro, Florianópolis - SC, 88010-060",Florianópolis,SC,,4.4,94,-27.595452299999998,-48.554447499999995,,
88010000,7,Gastromix Bem Caseiro,,ChIJp81LYiM4J5URaMZVd9sCQwI,"R. Antônio Dib Mussi, 367 - Centro, Florianópolis - SC, 88015-030",Florianópolis,SC,+55 48 3322-1024,3.8,61,-27.5927369,-48.5517697,,
88010000,8,Lanchonete e Restaurante Felipe Schmidt,,ChIJ4dwJHWk5J5URzK31ni-wDr0,"R. Felipe Schmidt, 379 - Centro, Florianópolis - SC, 88010-001",Florianópolis,SC,+55 48 3085-0001,4.5,10,-27.5956798,-48.5536464,,
88010000,9,Art Gourmet Restaurante,,ChIJlYXkviI4J5URGyY5s1MJ6gk,"Av. Rio Branco, 847 - Centro, Florianópolis - SC, 88015-200",Florianópolis,SC,+55 48 3206-0254,4.6,2269,-27.591499,-48.5497855,,
88010000,10,Caçarola Grill Restaurante,,ChIJT7HChCQ4J5URUxG9xBhCbSw,"R. Ten. Silveira, 106 - Centro, Florianópolis - SC, 88010-300",Florianópolis,SC,+55 48 3028-3200,4.5,177,-27.59612,-48.5505899,,
88010000,11,Mirantes,http://www.mirantes.com.br/,ChIJNdDvcSM4J5UR-PRj9mB0xe0,"Av. Pref. Osmar Cunha, 39 - Centro, Florianópolis - SC, 88015-100",Florianópolis,SC,+55 48 3228-5657,4.4,299,-27.5950509,-48.5507097,,
88010000,12,Família Sens,https://www.ifood.com.br/delivery/florianopolis-sc/restaurante-e-cafe-familia-sens-centro/68f784a6-612c-4cd8-ba35-f8a22e33d106,ChIJCa3ZKxI5J5URSOMHkLD_BRY,"Praça XV de Novembro, 320 - Centro, Florianópolis - SC, 88010-560",Florianópolis,SC,+55 48 99118-9111,4.7,560,-27.5973649,-48.5488388,,
88010000,13,Vidal Restaurante e Lanchonete,,ChIJv8C4vCQ4J5UR4JCYzK-DaAw,"R. Vidal Ramos, 14 - Centro, Florianópolis - SC, 88010-320",Florianópolis,SC,,4.8,4,-27.595906199999998,-48.549441599999994,,
88010000,14,Ceisa Restaurante e Lanchonete,,ChIJI2h8YCI4J5URg111AP3aT44,"Av. Pref. Osmar Cunha, 183 - Centro, Florianópolis - SC, 88015-100",Florianópolis,SC,+55 48 3224-5075,4.6,17,-27.5938625,-48.551241999999995,,
88010000,15,PONTE LANCHES,,ChIJ87AB3h84J5URgu7rPZBVBuY,"R. Felipe Schmidt, 1337 - sala 2 - Centro, Florianópolis - SC, 88010-002",Florianópolis,SC,+55 48 3307-4240,3.6,410,-27.5908056,-48.5616395,,
88010000,16,Go temaki,,ChIJeZqCyME5J5URUJJXikv_xMY,"Centro, Florianópolis - SC, 88010-400",Florianópolis,SC,,,,-27.594797699999997,-48.556979399999996,,
88010000,17,Panificadora Sabor e Pão,,ChIJfSus0h84J5URIxsh2g4_P0k,"R. Duarte Schutel, 162 - Centro, Florianópolis - SC, 88015-640",Florianópolis,SC,+55 48 3225-2536,4.3,666,-27.5910463,-48.5580813,,
88010000,18,Restaurante Oriental Jin,,ChIJScgnhSQ4J5URX-VtoIISYLA,"R. Ten. Silveira, 111 - Centro, Florianópolis - SC, 88010-300",Florianópolis,SC,+55 48 3228-6369,,,-27.596319599999998,-48.5508059,,
88010000,19,Restaurante Casa Velha,https://restaurante-casa-velha-brazilian-restaurant.negocio.site/,ChIJC_h4KDs4J5UReAckPnv_QR8,"R. Fernando Machado, 46 - Centro, Florianópolis - SC, 88010-510",Florianópolis,SC,+55 48 3333-7623,4.4,444,-27.5971467,-48.548307199999996,,
88010000,20,Restaurante Dona Joaquina,,ChIJKX8XonQ5J5UR-0RifglUOT8,"R. Fernando Machado, 39 - Centro, Florianópolis - SC, 88010-510",Florianópolis,SC,+55 48 3084-0770,4.7,70,-27.5969809,-48.548290099999996,,
88010000,3,Cozinha da Ilha,,ChIJb9bYQRY4J5URDF4X-M12fTM,"R. Rafael Bandeira, 118 - Centro, Florianópolis - SC, 88015-450",Florianópolis,SC,+55 48 3223-8435,4.6,45,-27.5872057,-48.545035399999996,,
88010000,4,Kulturas Restaurante,https://instagram.com/kulturasrestaurante?igshid=Yjk4NWM2ZWVkMw==,ChIJgwSisyM4J5UROA_hkD1-J28,"R. Jerônimo Coelho, 308 - Centro, Florianópolis - SC, 88010-030",Florianópolis,SC,+55 48 99167-5390,4.8,545,-27.595120599999998,-48.5515058,,
88010000,5,SANTA CUCINA,https://restaurants.accor.com/pt-br/restaurant-5947_R001-santa-cucina-florianopolis.shtml,ChIJMy1Ejxk4J5UR7SNyGFOiWi4,"Av. Jorn. Rubéns de Arruda Ramos, 2034 - Centro, Florianópolis - SC, 88015-701",Florianópolis,SC,+55 48 3207-8208,4.8,356,-27.5864299,-48.550479599999996,,
88010000,6,Restaurante Guacamole Cocina Mexicana,http://guacamolemex.com.br/,ChIJhy1ZgRk4J5URA9gJR123PC4,"Av. Jorn. Rubéns de Arruda Ramos, 2006 - Centro, Florianópolis - SC, 88015-702",Florianópolis,SC,+55 48 3225-0900,4.6,5804,-27.5863993,-48.5507559,,
88010000,7,Porto Restaurante,http://www.portorestaurante.com.br/,ChIJAymG2hc4J5URqmfc85w1J8M,"Av. Trompowsky, 158 - Centro, Florianópolis - SC, 88015-300",Florianópolis,SC,+55 48 3065-6168,4.3,286,-27.589018499999998,-48.546918999999995,,
88010000,8,Restaurante Mariá,,ChIJL5_yyOM5J5UR7rYTelXphR8,"R. Dom Joaquim, 680 - Centro, Florianópolis - SC, 88015-310",Florianópolis,SC,+55 48 3054-4269,4.8,351,-27.5913607,-48.5464136,,
88010000,9,Noma Sushi Rooftop,https://linktr.ee/nomasushi,ChIJNxCEIRc4J5UR9wpqzMsClNQ,"R. Alm. Lamego, 201 - Centro, Florianópolis - SC, 88015-600",Florianópolis,SC,+55 48 99170-5869,4.7,1020,-27.5940485,-48.5618932,,
88010000,10,Osli Restaurante,https://lkdesignhotel.com.br/restaurante/,ChIJLXbRlz05J5URjMy_hZqRm8U,"R. Bocaiúva, 1755 - Centro, Florianópolis - SC, 88015-530",Florianópolis,SC,+55 48 3112-2412,4.5,125,-27.5870568,-48.5513796,,
88010000,11,O Kilo Restaurante,,ChIJQ8wfoiQ4J5UR40wI4A31ll0,"R. Trajano, 287 - Centro, Florianópolis - SC, 88010-010",Florianópolis,SC,+55 48 3324-1025,4.5,101,-27.595989499999998,-48.550218,,
88010000,12,Alcatéia Restaurante,http://www.facebook.com/alcateiarestaurante,ChIJaxul3zo4J5URx58jrTQUnU0,"Av. Hercílio Luz, 679 - Centro, Florianópolis - SC, 88020-000",Florianópolis,SC,+55 48 3224-8263,4.4,401,-27.5970841,-48.547742799999995,,
88010000,13,Juca Pato Pizzaria,http://www.jucapato.com.br/,ChIJGzEkZR84J5URw-Ixm-62ow8,"Pizza Vegana Pizza Sem Trigo , Melhor Pizzaria de Florianópolis Pizza Lowcarb , Massa Fit - Av. Rio Branco, 262 Pizzaria, Av. Rio Branco, 262 - Centro, Florianópolis - SC, 88015-200",Florianópolis,SC,+55 48 3225-5191,4.4,1298,-27.592381699999997,-48.5556795,,
88010000,14,Nutribom Restaurante Natural,,ChIJXwypuFlEJ5URebkj5DOayN8,"Edificio Alcion - R. Araújo Figueiredo, 19 - Centro, Florianópolis - SC, 88110-520",Florianópolis,SC,+55 48 3028-2442,4.4,70,-27.595861199999998,-48.5480935,,
88010000,15,Restaurante chef Premium,,ChIJqzNuGQI5J5URipXWrkFzSZs,"R. Trajano, 279 - Centro, Florianópolis - SC, 88010-010",Florianópolis,SC,+55 48 3030-5803,4.7,10,-27.5960586,-48.5501692,,
88010000,16,Restaurante Califórnia,,ChIJlb46qTo4J5URGkCDwh7gyHI,"R. Tiradentes, 201 - Centro, Florianópolis - SC, 88010-430",Florianópolis,SC,+55 48 3371-3866,4.4,122,-27.599367899999997,-48.5483334,,
88010000,17,Central,https://linktr.ee/central_floripa,ChIJ2SEeOxc4J5URLfYVski3i3Q,"R. Bocaiúva, 2180 - Centro, Florianópolis - SC, 88015-530",Florianópolis,SC,+55 48 3222-0089,4.7,970,-27.5856946,-48.547009499999994,,
88010000,18,Kaio Restaurant,https://instagram.com/kaiorestaurant?igshid=OGQ5ZDc2ODk2ZA==,ChIJEx4HDSc5J5URqg47IVf_XNc,"R. Vidal Ramos, 350 - Centro, Florianópolis - SC, 88010-320",Florianópolis,SC,,4.9,7,-27.5944726,-48.5522247,,
88010000,19,Lanchonete União,,ChIJV9j4kSA4J5UR9VaI_tTRV0w,"Terminal Rodoviário Rita Maria - Centro, Florianópolis - SC, 88010-400",Florianópolis,SC,,2.7,15,-27.5969964,-48.558863599999995,,
88010000,20,Restaurante bella vista,,ChIJQZBdvnM5J5URpK2sYFsb2mw,"Av. Hercílio Luz, 1177 - Centro, Florianópolis - SC, 88020-001",Florianópolis,SC,,4.3,44,-27.5946957,-48.5450978,,
88010000,1,Cia do Espetinho,,ChIJZdsMOqc5J5URtYmFVwFSfMM,"Av. Mauro Ramos - Centro, Florianópolis - SC, 88020-301",Florianópolis,SC,+55 48 98421-8404,4.9,93,-27.5923306,-48.5434209,,
88010000,2,Artusi Restaurante,https://www.artusiristorante.com.br/,ChIJb-IXQRc4J5URpUC30rp1jgw,"R. Bocaiúva, 2090 - Centro, Florianópolis - SC, 88015-530",Florianópolis,SC,+55 48 3067-4444,4.7,1700,-27.586156,-48.547695999999995,,
88010000,3,Restaurante Caiçara,,ChIJs2JHUzo4J5UROiIfk1egswQ,"Av. Hercílio Luz, 895 - Centro, Florianópolis - SC, 88020-000",Florianópolis,SC,+55 48 3222-9554,4.4,304,-27.596272199999998,-48.5458137,,
88010000,4,arabesque cafeteria e restaurante,https://arabesque-cafeteria-e-resturante.business.site/,ChIJ-y_Btow5J5URxojWJVEgas4,"R. Vítor Konder, 390 - sl 01 - Centro, Florianópolis - SC, 88015-400",Florianópolis,SC,+55 48 99636-2537,4.7,232,-27.5872347,-48.543386899999994,,
88010000,5,MATRYOSHKA Sabores do Leste Europeu,https://instagram.com/matryoshkaflorianopolis?igshid=NmZiMzY2Mjc=,ChIJG6od0_Q5J5URIQbjLCdG-_Q,"R. Mal. Guilherme, 119 - Centro, Florianópolis - SC, 88015-000",Florianópolis,SC,+55 48 98848-3285,5,718,-27.5951371,-48.5501678,,
88010000,6,NL Gastronomia,https://nl-gastronomia.negocio.site/?utm_source=gmb&utm_medium=referral,ChIJMYZjJTs4J5URH9shu3d0FSY,"Rua Saldanha Marinho, 313 A - Centro, Florianópolis - SC, 88010-450",Florianópolis,SC,+55 48 3304-1615,4.6,125,-27.596732199999998,-48.5481814,,
88010000,7,Restaurante do Waguinho,https://www.facebook.com/Waguinho-Restaurante-108586165574158/?mibextid=ZbWKwL,ChIJqZ7PWAU5J5URGU5Hj1XFbG0,"R. Ten. Silveira, 111 - Centro, Florianópolis - SC, 88010-300",Florianópolis,SC,+55 48 98435-5422,,,-27.596292599999998,-48.5508118,,
88010000,8,Restaurante Casa Velha,,ChIJ6fN68Ts4J5UR0nJfBbASrYI,"Av. Hercílio Luz, 1202 - Centro, Florianópolis - SC, 88020-001",Florianópolis,SC,+55 48 3333-0434,4.4,382,-27.5940332,-48.544606599999995,,
88010000,9,Vitral Restaurante,https://www.instagram.com/vitral_restaurante/,ChIJhSeLEzw4J5URuV30sprN9t4,"R. Emílio Blum, 131 - 10 - Centro, Florianópolis - SC, 88020-010",Florianópolis,SC,+55 48 3333-1491,4,72,-27.592481,-48.544698,,
88010000,10,Kazuaki,,ChIJmUVEbCI4J5URXxANUEFyBqw,"R. Dom Jaime Câmara, 50 - Centro, Florianópolis - SC, 88015-120",Florianópolis,SC,+55 48 3206-0071,4.3,864,-27.592313299999997,-48.5522845,,
88010000,11,Palicone Steak House - Restaurante e Choperia,http://www.paliconeflorianopolis.com.br/,ChIJZy6Nu-A3J5URM76rHpdAkXY,"R. Gen. Eurico Gaspar Dutra, 908 - Estreito, Florianópolis - SC, 88075-100",Florianópolis,SC,+55 48 3197-4250,4.8,70,-27.589998299999998,-48.5777125,,
88010000,12,Restaurante Style Oriental,,ChIJGRsz9SQ4J5URSJoiPvwWP78,"R. Felipe Schmidt, 91 - Centro, Florianópolis - SC, 88000-110",Florianópolis,SC,+55 48 3204-7506,4.3,176,-27.5971689,-48.551153299999996,,
88010000,13,Restaurante Natural Tsan The,https://www.instagram.com/restaurantenaturaltsanthe/,ChIJScgnhSQ4J5URIo0ekVJ-D9g,"Parthenon Center II, R. Ten. Silveira, 111 - 206 - Centro, Florianópolis - SC, 88010-300",Florianópolis,SC,+55 48 99663-3888,4.7,341,-27.5963449,-48.5508084,,
88010000,14,CAPRESE PIZZA & PASTA,http://caprese.com.br/,ChIJAa_uyTs4J5URdjhLNxvnbwM,"Praça Olívio Amorim, 10 - Centro, Florianópolis - SC, 88020-090",Florianópolis,SC,+55 48 3223-2321,4.7,1590,-27.5956627,-48.5447774,,
88010000,15,"Uai Di Minas Centro - Praça XV - Restaurante, Café e Armazém",http://www.uaidiminas.com.br/,ChIJVbksTiY5J5URXRlNmHpiI7o,"Praça XV de Novembro, 352 - Centro, Florianópolis - SC, 88010-560",Florianópolis,SC,+55 48 3304-6639,4.7,191,-27.597044,-48.548726099999996,,
88010000,16,Restaurante Sandra Garcia,,ChIJX_JLiDk4J5URbEF6j2AejVo,"Rua General Vieira da Rosa, 22 - Centro, Florianópolis - SC, 88020-410",Florianópolis,SC,+55 48 3324-0908,4.8,23,-27.596272199999998,-48.5430681,,
88010000,17,Sabores Restaurante,https://saboresfloripa.goomer.app/,ChIJawVzlz44J5URzaH3U6UmZWc,"Av. Mauro Ramos, 1130 - Centro, Florianópolis - SC, 88020-300",Florianópolis,SC,+55 48 3025-7837,4.5,426,-27.5913994,-48.5429478,,
88010000,18,Restaurante Didge Steakhouse Pub,https://www.didge.com.br/,ChIJt9wrgRk4J5URwmKJN63P5gQ,"Av. Jorn. Rubéns de Arruda Ramos, 1976 - Centro, Florianópolis - SC, 88010-400",Florianópolis,SC,+55 48 3365-6615,4.6,3898,-27.586496099999998,-48.5509735,,
88010000,19,Restaurante do Sesc,,ChIJSQZ4UVc5J5UR2AeYUxQmSas,"Tv. Syriaco Atherino, 53 - Centro, Florianópolis - SC, 88020-183",Florianópolis,SC,,4.4,8,-27.6024665,-48.5468798,,
88010000,20,Restaurante e Padaria Frida,,ChIJ-7GgXR45J5URmpJWQ2Mzddc,"R. Tiradentes, 90 - Centro, Florianópolis - SC, 88010-430",Florianópolis,SC,+55 48 3223-6700,4.6,56,-27.598717699999998,-48.549312099999995,,
88010000,1,Flor de Sal Restaurante Gourmet,http://www.facebook.com.br/flordesalrestaurantegourmet,ChIJ45nOrec3J5URFhfYaJaGOfQ,"R. Fúlvio Aducci, 958 - Estreito, Florianópolis - SC, 88075-001",Florianópolis,SC,+55 48 3091-2476,4.8,424,-27.588596199999998,-48.5763934,,
88010000,2,Mestre do Sabor Floripa,,ChIJq3AiuDFIJ5URl3H36elzCXQ,"rua, Servidão Manoel Reis, 216, Florianópolis - SC, 88095-220",Florianópolis,SC,,4.2,182,-27.5757348,-48.591886699999996,,
88010000,3,Blackpot Restaurant,https://blackpotrestaurant.com.br/,ChIJ5z9bGRY4J5URoDoXW6nzGqU,"R. Vítor Konder, 203 - Centro, Florianópolis - SC, 88015-400",Florianópolis,SC,+55 47 99944-8927,4.5,4118,-27.5883306,-48.5447722,,
88010000,4,Padaria e Restaurante Bela Ilha,,ChIJ9_VPgKc5J5URiilgnewFgqE,"R. Dep. Antônio Edu Vieira, 1440 - Pantanal, Florianópolis - SC, 88040-245",Florianópolis,SC,+55 48 3112-1661,4.3,504,-27.6043478,-48.516712399999996,,
88010000,5,Nostro Babbo Restaurante,https://instagram.com/nostrobabbo?igshid=YmMyMTA2M2Y=,ChIJN9hfaec3J5UR2_ZI7YzLFZM,"R. Fúlvio Aducci, 1229 - Estreito, Florianópolis - SC, 88075-600",Florianópolis,SC,+55 48 3209-7112,4.6,545,-27.5878849,-48.5780074,,
88010000,6,Pizza Crek Florianópolis,,ChIJoSNGr0M5J5URykhXhk2hzNQ,"R. Felipe Schmidt, 636 - loja 11 - Centro, Florianópolis - SC, 88010-001",Florianópolis,SC,+55 48 99171-0251,4.5,60,-27.5944082,-48.555419699999995,,
88010000,7,Restaurante Sabor Divino grill,https://restaurante-sabor-divino-grill.negocio.site/,ChIJDbAKtdI3J5UROentCkGtcMY,"R. Cel. Pedro Demoro, 1585 - Balneario, Florianópolis - SC, 88075-301",Florianópolis,SC,+55 48 3091-3239,4.5,270,-27.5855014,-48.5802256,,
88010000,8,Tobias Restaurante,,ChIJNUH8_903J5UR_g9u26EVF8k,"R. Souza Dutra, 1129 - Capoeiras, Florianópolis - SC, 88070-605",Florianópolis,SC,+55 48 3348-0585,4.6,644,-27.592775,-48.5863576,,
88010000,9,Restaurante Arte De Comer,,ChIJG7-8KA04J5URaQMVBiXmSy0,"R. Rui Barbosa - Agronômica, Florianópolis - SC, 88025-301",Florianópolis,SC,,,,-27.574920199999998,-48.5392952,,
88010000,10,Oswaldo Hambúrgueres - Centro,https://www.ifood.com.br/delivery/florianopolis-sc/oswaldo-burgers---centro-centro/fabfb3b3-a12c-442a-97c8-453f5f8ff892,ChIJOz4evE45J5UR3A5SjDDi14U,"Av. Pref. Osmar Cunha, 472 - Centro, Florianópolis - SC, 88015-100",Florianópolis,SC,+55 48 3211-8586,4.8,25,-27.591360299999998,-48.5516133,,
88010000,11,SABOR DA ILHA PIZZARIA,,ChIJZR1-UDs4J5URzz7K1YL4kXw,"R. Santos Dumont, 8 - Centro, Florianópolis - SC, 88015-020",Florianópolis,SC,,,,-27.595281099999998,-48.5481303,,
88010000,12,Ellius Restaurante,,ChIJPxuyGxlJJ5URe3cUeKbCK8o,"R. Cel. Pedro Demoro, 2222 - sala 01 - Estreito, Florianópolis - SC, 88075-300",Florianópolis,SC,+55 48 3112-8225,4.7,96,-27.5820233,-48.5850714,,
88010000,13,"Coco Bambu Florianópolis: Restaurante, Peixe, Camarão, Carnes, Lagosta, Salada",https://cocobambu.com/unidades/florianopolis/,ChIJqTuaTU85J5URBp0VAMRlmTY,"Av. Me. Benvenuta, 687 - Santa Monica, Florianópolis - SC, 88035-000",Florianópolis,SC,+55 48 3364-9445,4.8,14038,-27.5903681,-48.5148863,,
88010000,14,Restaurante Receitas de Familia,,ChIJFQ0Q8243J5URiDEJZ8Mev3E,"R. Gen. Liberato Bittencourt, 1602 - Canto, Florianópolis - SC, 88075-400",Florianópolis,SC,+55 48 99989-3095,,,-27.585024299999997,-48.5824303,,
88010000,15,Nipô Sushi - Beiramar,http://www.niposushi.com.br/,ChIJA8czxxY4J5URJsQP_uKL-iw,"Beiramar Shopping - R. Bocaiúva, 2468 - Centro, Florianópolis - SC, 88015-902",Florianópolis,SC,+55 48 3039-1130,4.6,1760,-27.5842656,-48.5448476,,
88010000,16,Favo Restaurante Café e Bar,,ChIJ_db78l43J5URQIQQlutRIWM,"R. Des. Pedro Silva, 3078 - Coqueiros, Florianópolis - SC, 88080-700",Florianópolis,SC,,3.9,53,-27.616329699999998,-48.5909614,,
88010000,17,"Coco Bambu Itaguaçu: Restaurante, Peixe, Camarão, Carnes, Lagosta, Salada , SC",https://cocobambu.com/unidade/itaguacu/,ChIJHY0SdD1JJ5UR-TyA6bcbUTg,"R. Gerôncio Thives, 1079 - 2º Piso - Barreiros, São José - SC, 88117-900",Florianópolis,SC,+55 48 3821-8880,4.9,5075,-27.585238399999998,-48.614145199999996,,
88010000,18,Contém ovo,http://www.contemovo.com.br/,ChIJ4xCGjgs5J5URqtsop77oD6g,"R. Des. Arno Hoeschl, 301 - Centro, Florianópolis - SC, 88015-620",Florianópolis,SC,+55 48 99662-3791,4.7,64,-27.589748099999998,-48.557673699999995,,
88010000,19,Restaurante,https://www.instagram.com/emails/emails_sent/,ChIJuyk89c43J5URO5l5Afr39N4,"R. Joaquim Carneiro, 243 - Capoeiras, Florianópolis - SC, 88085-120",Florianópolis,SC,+55 48 3209-1909,3.4,304,-27.5985247,-48.592568199999995,,
88010000,20,Bar da Wal e restaurante,,ChIJW5nvGHA4J5URmfbL9_k2Jcc,"Rua Paschoal Apóstolo Pítsica - Agronômica, Florianópolis - SC, 88025-255",Florianópolis,SC,+55 48 99600-9717,4,7,-27.573328699999998,-48.5298429,,
88010000,1,Lorenzos Marmitaria,https://www.instagram.com/lorenzosmarmitaria,ChIJu9DWnqc5J5URC1ypxZZ_vO8,"Av. Jorn. Rubéns de Arruda Ramos, 2568 - Centro, Florianópolis - SC, 88015-702",Florianópolis,SC,+55 48 99168-2550,5,12,-27.5841104,-48.5455536,,
88010000,2,"Restaurante Bom, Prático e Barato",,ChIJPXkfJYE4J5URfy-gyo27Gfw,"R. São Miguel, 44 - João Paulo, Florianópolis - SC, 88030-320",Florianópolis,SC,+55 48 3334-8575,4.4,181,-27.5630475,-48.5158273,,
88010000,3,Restaurante Gula Sem Pecado na trindade - florianópolis,https://gulasempecado.negocio.site/,ChIJVbL2JFY4J5URJcKcomRguLw,"Av. Me. Benvenuta, 220 - Trindade, Florianópolis - SC, 88036-500",Florianópolis,SC,+55 48 99209-0562,4.3,697,-27.592492099999998,-48.5191789,,
88010000,4,Sfizio - Baixo Centro,https://www.instagram.com/sfiziobaixocentro/,ChIJjYqPKhE5J5URV1CppJu_-8k,"R. Nunes Machado, 44 - baixo centro, Florianópolis - SC, 88010-460",Florianópolis,SC,,5,76,-27.599083999999998,-48.549188799999996,,
88010000,5,Sattoru Sushi,https://sattorusushi.com.br/,ChIJ0VIJfjo3J5UR9B-GosyTZMI,"Av. Eng. Max de Souza, 710 - Coqueiros, Florianópolis - SC, 88080-000",Florianópolis,SC,+55 48 3065-6040,4.7,1306,-27.6020327,-48.5758588,,
88010000,6,Restaurante da Vó Lila,,ChIJexVzVKU5J5URKjJPpEk8jtM,"Rua João Motta Espezim, 1320 - Saco dos Limões, Florianópolis - SC, 88045-400",Florianópolis,SC,+55 48 3225-7060,4.1,26,-27.6121154,-48.5284972,,
88010000,7,nutricursos,https://www.nutricursosfloripa.com/contato,ChIJAQCQ_R44J5UR-uzshJAT71M,"Alameda Gov. Heriberto Hulse, 98 - Centro, Florianópolis - SC, 88015-170",Florianópolis,SC,+55 48 99129-3920,,,-27.5903383,-48.5558164,,
88010000,8,Restaurante Gourmet,https://www.facebook.com/gourmetrestaurantes/,ChIJ_-bkaqg5J5UR6sld31r1KeY,"R. Dep. Antônio Edu Vieira, 999 - Pantanal, Florianópolis - SC, 88040-901",Florianópolis,SC,+55 48 3231-7485,4.5,192,-27.6072365,-48.5214844,,
88010000,9,RESTAURANTE LINDACAP,http://www.lindacap.com.br/,ChIJAy4F3h84J5URS_GqhW4o0eA,"R. Des. Pedro Silva, 2532 - Coqueiros, Florianópolis - SC, 88080-701",Florianópolis,SC,+55 48 3222-4002,4.7,1649,-27.613991,-48.586540899999996,,
88010000,10,Villa Restaurante,,ChIJ_WWh-SQ4J5URTdZTkzjOF4M,"R. Ver. Mário Coelho Pires, 240 - Campinas, São José - SC, 88101-280",Florianópolis,SC,+55 48 3030-2244,4.4,142,-27.595895499999997,-48.606538099999995,,
88010000,11,Restaurante Ponto Light,http://pontolight.negocio.site/,ChIJORJwf7Y3J5URwpf63Ktkmxk,"R. João Meirelles, 978 - Abraão, Florianópolis - SC, 88085-201",Florianópolis,SC,+55 48 3249-7974,4.4,409,-27.6085946,-48.5937256,,
88010000,12,Restaurante executivo,,ChIJb0-XG7E5J5URxG7s9UGGDHQ,"R. Esteves Júnior, 237 - Centro, Florianópolis - SC, 88015-130",Florianópolis,SC,,,,-27.5924704,-48.5528894,,
88010000,13,TRATTO Restaurante & Rotisseria,http://www.trattorestaurante.com.br/,ChIJ97cEX_I4J5URSjGdWC-ojQA,"R. Prof. Ayrton Roberto de Oliveira, 64 - Itacorubi, Florianópolis - SC, 88034-050",Florianópolis,SC,+55 48 3365-6508,4.5,481,-27.5788491,-48.5102659,,
88010000,14,Faial Prime Suites,http://faialprime.com.br/,ChIJ-d-CsCE4J5URaVvH5ag3DH0,"R. Felipe Schmidt, 603 - Centro, Florianópolis - SC, 88010-001",Florianópolis,SC,+55 48 3203-2766,4.6,2519,-27.594649,-48.555484,,
88010000,15,Restaurante Oliveira,http://www.facebook.com/restauranteoliveiraa,ChIJb3HdgLs-J5URzM_XXmGtRBI,"R. Henrique Vera do Nascimento, 57 - Lagoa da Conceição, Florianópolis - SC, 88062-020",Florianópolis,SC,+55 48 3211-8099,4.2,1051,-27.604637999999998,-48.464351,,
88010000,16,Molho Rose Restaurante e Assados,https://molho-rose-restaurante-e-assados.negocio.site/,ChIJs2dcfYM5J5URCYm-4D949Js,"Av. Jorge Lacerda, 1472 - Costeira do Pirajubaé, Florianópolis - SC, 88047-000",Florianópolis,SC,+55 48 3226-0995,4.4,184,-27.631311,-48.523819599999996,,
88010000,17,LK Design Hotel - Florianópolis,https://lkdesignhotel.com.br/,ChIJ21TOdxk4J5URVQf3uy3kVG4,"R. Bocaiúva, 1755 - Centro, Florianópolis - SC, 88015-530",Florianópolis,SC,+55 48 3112-2233,4.9,1059,-27.5870568,-48.5513796,,
88010000,18,Cantina Petrus Risotos e Pastas,,ChIJMaA-mV83J5URRM0T7WzIDNA,"R. Des. Pedro Silva, 2406 - Coqueiros, Florianópolis - SC, 88080-701",Florianópolis,SC,+55 48 99119-6613,4.7,229,-27.6133977,-48.5856773,,
88010000,19,JEAN RESTAURANTE,,ChIJA4K8sEo5J5URRru8cAa8DSQ,"R. Esteves Júnior, 50 - Centro, Florianópolis - SC, 88015-130",Florianópolis,SC,+55 48 98492-8274,5,1,-27.594030999999998,-48.552062899999996,,
88010000,20,Restaurante Bieza,,ChIJETP3goI5J5URpxYSqkvWS7M,"Edifício Celta - SC-401, 600 - Saco Grande, Florianópolis - SC, 88030-000",Florianópolis,SC,,4.7,65,-27.571135299999998,-48.509004,,
88010000,1,Rivie - Restaurante e Café Saudável (lado Colégio Catarinense),http://www.instagram.com/casarivie,ChIJAzy7-l85J5UR7ZDMluEaxoQ,"R. Esteves Júnior, 733 - Centro, Florianópolis - SC, 88015-130",Florianópolis,SC,+55 48 3771-9466,4.6,100,-27.588123399999997,-48.553607299999996,,
88010000,2,Mirko Rosticceria,,ChIJI7P_tCM4J5URm-e1CD3fU0s,"Praça de Alimentação - R. Esteves Júnior, 50 - Centro, Florianópolis - SC, 88015-130",Florianópolis,SC,+55 48 3024-1355,,,-27.594037099999998,-48.5522431,,
88010000,3,Cachorro Quente Rickali,https://cachorroquenterickali.com.br/,ChIJ_5IccvxJJ5URc5xMykx4CKA,"R. Bernardo Halfeld, 180 - Nossa Sra. do Rosario, São José - SC, 88110-695",Florianópolis,SC,+55 48 99132-2298,5,3,-27.5818354,-48.6180398,,
88010000,4,Daisuki Restaurante,,ChIJZ6cb7ls3J5URiIeb-MIizAo,"R. José Filomeno, 74 - Campinas, São José - SC, 88101-450",Florianópolis,SC,,5,1,-27.5994878,-48.6063371,,
88010000,5,Spoleto,https://www.spoleto.com.br/tabs/cardapioapp,ChIJ68A0s6E4J5URFcAGfTB0gxU,"Rod. Virgílio Várzea, 587 - Saco Grande, Florianópolis - SC, 88032-005",Florianópolis,SC,+55 48 99126-5323,4.3,1333,-27.553631199999998,-48.498639499999996,,
88010000,6,Prego Casa di Pasta,https://www.instagram.com/pregocasadipasta/,ChIJ27plEx9HJ5URD0eBFLqrGO4,"Rod. José Carlos Daux, 4150 - Saco Grande, Florianópolis - SC, 88032-005",Florianópolis,SC,,,,-27.544825499999998,-48.501678,,
88010000,7,Restaurante Boni Gastronomia,,ChIJFYSo34E-J5URJssZlqkz6L8,"Av. das Rendeiras, 2232 - Lagoa da Conceição, Florianópolis - SC, 88062-400",Florianópolis,SC,+55 48 3304-9059,4.5,1200,-27.609361099999997,-48.4425288,,
88010000,8,Don Floripa Food & Arts,,ChIJRWSBDwo5J5URwYX4c7FN1YA,"Av. Me. Benvenuta, 980 - Santa Monica, Florianópolis - SC, 88035-000",Florianópolis,SC,,5,3,-27.590994,-48.5115309,,
88010000,9,RESTAURANTE PANELA'S,,ChIJL1q9JCU4J5UR50Lj4t3Tuuc,"Anexo Brasil Atacadistas - Rod. Francisco Magno Vieira, 373 - salas 10 e 11 - Costeira do Pirajubaé, Florianópolis - SC, 88048-000",Florianópolis,SC,+55 48 3307-7009,4.3,124,-27.6485025,-48.5192206,,
88010000,10,Angra.96,,ChIJZ1WCmIA5J5URJ97pnzgDDrY,"R. Euríco Hosterno, 335 - Santa Monica, Florianópolis - SC, 88035-400",Florianópolis,SC,,,,-27.5904594,-48.504535399999995,,
88010000,11,La Lupita,,ChIJEZW4egY5J5URsvESPOdWbPE,"R. João Pio Duarte Silva, 1630 - Córrego Grande, Florianópolis - SC, 88037-000",Florianópolis,SC,,5,1,-27.6010477,-48.501781099999995,,
88010000,12,Tempero da Ilha,,ChIJVWfyEpw_J5URykVh67bd1Tw,"Tv. Leopoldo João Santos, 48 - Lagoa da Conceição, Florianópolis - SC, 88062-065",Florianópolis,SC,,3.9,10,-27.603669099999998,-48.464632099999996,,
88010000,13,Casa do Mar,,ChIJtcTuePhpJ5URMdA7fbQa09o,"Av. das Rendeiras, 1908 - Lagoa da Conceição, Florianópolis - SC, 88062-400",Florianópolis,SC,+55 48 3369-2824,4.3,314,-27.609629199999997,-48.4455728,,
88010000,14,Isla Gastro,http://islagastro.com.br/,ChIJ-_wnGKA7J5URjf5blYcaoDo,"na - Av. Campeche, no 555 - loja1003 - Campeche, Florianópolis - SC, 88063-300",Florianópolis,SC,+55 48 99203-4681,4.7,98,-27.683537899999997,-48.482278699999995,,
88010000,15,Restaurante Lagoa da Conceição Colibri Garden,https://cardapiodigital.io/colibrigarden,ChIJAciTVLc-J5URjyc-E9pCfEQ,"R. Crisógono Viêira da Cruz, 384 - Lagoa da Conceição, Florianópolis - SC, 88062-110",Florianópolis,SC,+55 48 98838-6840,4.4,515,-27.603741,-48.4693872,,
88010000,16,Sabores da Casa Restaurante,,ChIJr9J2hag5J5UR0tzRETk31_k,"R. Dep. Antônio Edu Vieira, 775 - Pantanal, Florianópolis - SC, 88040-001",Florianópolis,SC,+55 48 3371-1649,3.1,20,-27.6087621,-48.521778399999995,,
88010000,17,Tropicana Restaurante,,ChIJKY5ktOQ_J5URgdiPvf3z00c,"Av. das Rendeiras - Lagoa da Conceição, Florianópolis - SC, 88062-002",Florianópolis,SC,,3.7,6,-27.609598799999997,-48.4454323,,
88010000,18,Izakaya Nankin Pocket,https://www.izakayanankin.com.br/,ChIJLcxKiC4_J5URwodbrEauwqY,"R. Henrique Vera do Nascimento, 190 - Lagoa da Conceição, Florianópolis - SC, 88062-020",Florianópolis,SC,,4.6,5,-27.6047285,-48.465979399999995,,
88010000,19,Buffet Divino Prato,https://www.instagram.com/buffetdivinoprato,ChIJMQVjNu0_J5URsBQIusOb9Kk,"Av. das Rendeiras, 1620 - Lagoa da Conceição, Florianópolis - SC, 88062-400",Florianópolis,SC,+55 48 99208-7437,4.7,50,-27.609405199999998,-48.4484031,,
88010000,20,Ostra Bar & Restaurante,,ChIJf7mTQXUwJ5URH0CI-11qfnI,"Rod. Baldicero Filomeno, 6230 - Alto Ribeirão, Florianópolis - SC, 88064-000",Florianópolis,SC,,4.8,10,-27.708926899999998,-48.5597328,,
88010000,1,Tekapo - Art of Brunch,https://linktr.ee/tekapo,ChIJl-w84MI7J5UR6ep8xAAm3qU,"Av. Pequeno Príncipe, 862 - Campeche, Florianópolis - SC, 88063-000",Florianópolis,SC,+55 48 99800-2035,5,30,-27.676772099999997,-48.5002116,,
88010000,2,Cusco Rangos & Drinks,https://www.instagram.com/cusconailha/,ChIJO0WMIhU7J5URK4QbfPaQFgU,"Av. Pequeno Príncipe, 1277 - Campeche Central, Florianópolis - SC, 88063-000",Florianópolis,SC,+55 51 98432-5404,4.8,18,-27.678597999999997,-48.496553,,
88010000,3,Restaurante Vó Cantilia,,ChIJ81X4sd4lJ5URBYKV7Zq1DRk,"Av. Antônio Borges dos Santos, 372 - Armação, Florianópolis - SC, 88066-400",Florianópolis,SC,,,,-27.750528799999998,-48.5065793,,
88010000,4,Nomade RestoBar,https://instagram.com/nomade_restobarok,ChIJqaeU78dDJ5URw5xp2-ddEzo,"R. Hipólito Gregório Pereira, 705 - Canasvieiras, Florianópolis - SC, 88054-210",Florianópolis,SC,+55 48 98877-8674,5,5,-27.428196699999997,-48.4593822,,
88010000,5,Restaurante e Café Barió,https://instagram.com/restaurantebario?igshid=YmMyMTA2M2Y=,ChIJgW17SzhDJ5URm2O0hy-Fqrc,"Terreo do Makan Center, 1302 B - Sapiens Parque, Av. Luiz Boiteux Piazza - Cachoeira do Bom Jesus, Florianópolis - SC, 88056-000",Florianópolis,SC,+55 48 98838-7231,4.5,847,-27.4326796,-48.4437417,,
88010000,6,Restaurante Fechado,,ChIJN-PhsAlqJ5URsCAZhkL0j6w,"400, Estr. Dário Manoel Cardoso, 1302 - Ingleses do Rio Vermelho, Florianópolis - SC, 88058-400",Florianópolis,SC,+55 48 99640-3527,4.5,221,-27.449395,-48.3973405,,
88010000,7,Restaurante da Sol,,ChIJLcBWKhhFJ5UR5fuurnPwXiw,"R. das Papoulas, 110 - Daniela, Florianópolis - SC, 88053-150",Florianópolis,SC,+55 48 98497-4779,5,4,-27.4479835,-48.524056699999996,,
88010001,4,Kibe e kebab,,ChIJISCtN-Y5J5UR63NIObdhG1E,"R. Sete de Setembro, 165 - Centro, Florianópolis - SC, 88010-060",Florianópolis,SC,+55 48 98862-7410,4.5,82,-27.595396599999997,-48.5545554,,
88010001,6,Sabores Do Cheff Jean,,ChIJeaxgayE4J5URJwMkZuiD5K0,"R. Conselheiro Mafra - Centro, Florianópolis - SC, 88010-400",Florianópolis,SC,+55 48 99602-4597,5,6,-27.595682999999998,-48.5550388,,
88010001,9,Amazon Fruit Bowls,https://instagram.com/amazonfruitbowls?igshid=MzRlODBiNWFlZA==,ChIJY-wJZSE4J5UR00deGRJG2OU,"R. Sete de Setembro, 186 - centro - Centro, Florianópolis - SC, 88010-060",Florianópolis,SC,+55 48 3733-4837,4.4,462,-27.5955025,-48.554212299999996,,
88010001,15,Restaurante Canto Azul,,ChIJR4mOgCE4J5URhSMGqOXx0k8,"R. Ten. Silveira, 396 - Centro, Florianópolis - SC, 88020-080",Florianópolis,SC,+55 48 3028-5769,4.6,615,-27.594697,-48.5530615,,
88010002,7,Canto Gaúsho,,ChIJjRmi8y85J5UR5k9FHP5ZN5E,"Centro, Florianópolis - SC, 88010-400",Florianópolis,SC,,5,2,-27.593437299999998,-48.5569081,,
88010010,5,LOTUS LOJA E RESTAURANTE,,ChIJ43BWNEc5J5URceXGv5upwos,"R. Trajano, 177 - Centro, Florianópolis - SC, 88010-010",Florianópolis,SC,+55 48 99860-4311,5,3,-27.5968472,-48.5507427,,
88010010,12,Massaviva João Pinto,http://www.massaviva.com.br/,ChIJFULQPCU4J5UR7q3UMJiB0uI,"Calçadão João Pinto, 57 - Sala B - Centro, Florianópolis - SC, 88010-420",Florianópolis,SC,+55 48 3024-3858,4.4,261,-27.5985235,-48.5497367,,
88010010,13,Gaucho restaurante,,ChIJ2dqO0o85J5URkRd8Y-_PHWQ,"Gaucho restaurante - Servidão Cartucho, 35 - serrinha, Florianópolis - SC, 88040-446",Florianópolis,SC,+55 48 99630-8457,,,-27.5969575,-48.5495294,,
88010010,14,Pomo Pasta,https://www.ifood.com.br/delivery/florianopolis-sc/pomo-pasta-centro/116b86a7-a9f3-4d0a-9bd8-520c4f7e606c,ChIJBfaQZDg5J5UR9eTH238WGwM,"R. Vidal Ramos, 127 - Loja 4 - Centro, Florianópolis - SC, 88010-320",Florianópolis,SC,+55 48 99903-2560,4.5,41,-27.5956071,-48.5505049,,
88010020,16,Restaurante Casarão da Ilha,,ChIJAV0lYuw5J5URu4yeXYM_Qw4,"R. Jerônimo Coelho, 180 - sala 2 - Centro, Florianópolis - SC, 88010-030",Florianópolis,SC,+55 48 98442-0852,4.6,27,-27.596027,-48.552273,,
88010020,20,Império Gourmet Grill,https://instagram.com/imperiogourmetgrill?igshid=7u0zo7s224f5,ChIJhz0-mSM4J5UR3jSkTWn_JTg,"R. Jerônimo Coelho, 305 - Centro, Florianópolis - SC, 88010-030",Florianópolis,SC,+55 48 3223-3940,4.5,228,-27.595011099999997,-48.5518061,,
88010030,3,Balcão Mané,,ChIJJwLQGiQ4J5URZMtBrf4Dt2g,"Ala Sul, R. Jerônimo Coelho, 60 - Box 01 - Centro, Florianópolis - SC, 88010-030",Florianópolis,SC,+55 48 3039-4443,4.4,195,-27.597300999999998,-48.5532537,,
88010030,4,Boteco Cascaes,https://boteco-cascaes.negocio.site/?utm_source=gmb&utm_medium=referral,ChIJB9bt-TE5J5UR5AbpBXDes7g,"R. Jerônimo Coelho, 60 - Box 02 N - Centro, Florianópolis - SC, 88010-907",Florianópolis,SC,+55 48 3206-1223,4.3,252,-27.597096099999998,-48.552990699999995,,
88010030,6,Trapiche Bar,,ChIJAzNFEiQ4J5URqzsgGhoRQ_Y,"34, R. Jerônimo Coelho, 60 - Centro, Florianópolis - SC, 88010-907",Florianópolis,SC,+55 48 3222-8151,3.5,140,-27.597376699999998,-48.5528486,,
88010030,8,Caldo de Cana Elias II - Box 28,https://www.facebook.com/CaldodeCanaElias2/,ChIJraBBBSQ4J5URv7N9GRZiIjk,"Ala sul- Mercado público de Florianópolis - R. Jerônimo Coelho, 60 - Box 28 - Centro, Florianópolis - SC, 88010-030",Florianópolis,SC,,4.8,119,-27.597196699999998,-48.553074699999996,,
88010030,9,Quintal Açoriano,,ChIJFeqCFCQ4J5UR6tOlrwmhtXE,"Largo da Alfândega - Centro, Florianópolis - SC, 88010-400",Florianópolis,SC,,3.1,78,-27.597324999999998,-48.5525881,,
88010030,10,Bob's Burgers,https://www.bobs.com.br/,ChIJp5VeU3w5J5URdjGTrBNbhRc,"R. Jerônimo Coelho, 60 - Centro, Florianópolis - SC, 88010-030",Florianópolis,SC,+55 48 3039-0327,3.9,64,-27.597100899999997,-48.552982899999996,,
88010030,20,Mercado Público de Florianópolis,http://www.mercadopublicofloripa.com.br/,ChIJKQXXEyQ4J5URmhxOBg8l7QU,"R. Jerônimo Coelho, 60 - Centro, Florianópolis - SC, 88010-030",Florianópolis,SC,+55 48 3225-8464,4.5,84777,-27.5971251,-48.5531793,,
88010030,14,Porto Restaurante,http://www.portorestaurante.com.br/,ChIJr67DkCM4J5URYnaPDMWEwxg,"R. Ten. Silveira, 296 - Centro, Florianópolis - SC, 88010-301",Florianópolis,SC,+55 48 3023-1114,4.5,243,-27.5951155,-48.5522145,,
88010040,6,Restaurante Villa da ilha,,ChIJ80OGD245J5URhM_MSiFuhlM,"R. Álvaro de Carvalho, 341 - Centro, Florianópolis - SC, 88010-040",Florianópolis,SC,+55 48 98840-6768,4.6,5,-27.5945394,-48.552512799999995,,
88010040,19,Sabor de Quê Restaurante,http://www.sabordequerestaurante.blogspot.com.br/?m=1,ChIJrSLNsyM4J5URHwaX_qhfhqg,"R. Esteves Júnior, 50 - Centro, Florianópolis - SC, 88015-130",Florianópolis,SC,+55 32492002,3.8,8,-27.594086899999997,-48.5520286,,
88010095,3,Kibelândia,http://kibelandiaflorianopolis.business.site/,ChIJf8ENyzo4J5UR-QwZ8XbZtwM,"R. Victor Meirelles, 98 - Centro, Florianópolis - SC, 88010-440",Florianópolis,SC,+55 48 3322-0760,4.5,794,-27.5983874,-48.5488685,,
88010095,4,Azeitona comida árabe,https://instagram.com/azeitona.comida.arabe?igshid=YmMyMTA2M2Y=,ChIJ8dvsMwA5J5UR0Ur_y6ZMH_s,"Calçadão João Pinto, 231 - Centro, Florianópolis - SC, 88010-430",Florianópolis,SC,+55 48 99846-3305,4.8,269,-27.5998444,-48.5484967,,
88010095,10,Sabore,,ChIJEUZk_TA4J5URbAYyzBlXo1U,"Calçadão João Pinto, 57 - sala C - Centro, Florianópolis - SC, 88010-420",Florianópolis,SC,+55 48 3228-3184,4.4,23,-27.5985235,-48.5497367,,
88010095,11,Restaurante Água na Boca,,ChIJJQFaVfY5J5UR6GDLtXqOVq4,"R. Tiradentes, 200 - Centro, Florianópolis - SC, 88010-430",Florianópolis,SC,,4.2,5,-27.5993945,-48.5486029,,
88010095,14,café|bar do Largo d'Alfândega,https://www.instagram.com/dolargodalfandega/,ChIJAZZo74c5J5UR029u2WqRA_k,"Largo da Alfândega, 142 - Centro, Florianópolis - SC, 88010-110",Florianópolis,SC,+55 48 99102-5141,4.6,436,-27.5983095,-48.5514371,,
88010095,16,Restaurante Nunes,,ChIJ_W3mJCU4J5URVERv3TLeA0Q,"R. Tiradentes, 244 - Centro, Florianópolis - SC, 88010-430",Florianópolis,SC,+55 48 3223-5044,4.6,219,-27.5996942,-48.5482987,,
88010095,2,Chopp do Mercado,,ChIJ4dgFC7k5J5URmroFXbWPtA0,"R. Conselheiro Mafra, 267 - Centro, Florianópolis - SC, 88010-101",Florianópolis,SC,,,,-27.5969518,-48.552909799999995,,
88010095,4,DESVIO VEG BURGER,,ChIJy4V3tTo4J5UROB0Cd8zmXUo,"R. Victor Meirelles, 98 - Centro, Florianópolis - SC, 88010-440",Florianópolis,SC,+55 48 99134-1771,4.8,462,-27.5983625,-48.5488766,,
88010095,5,Restaurante Don Emiliano,,ChIJx8Hoozo4J5URzua3iQ6lyIQ,"Av. Hercílio Luz, 399 - Centro, Florianópolis - SC, 88020-000",Florianópolis,SC,+55 48 99937-6813,4.2,40,-27.599143899999998,-48.547727599999995,,
88010095,7,Villa Verde Restaurante,,ChIJW1x1KDs4J5URt3bC1AVU650,"R. Fernando Machado, 64 - Centro, Florianópolis - SC, 88010-510",Florianópolis,SC,,,,-27.597188199999998,-48.548154499999995,,
88010095,9,Restaurante Saldanha 251,,ChIJAQCEKTs4J5URCNa073aEkXk,"Rua Saldanha Marinho, 251 - Centro, Florianópolis - SC, 88020-050",Florianópolis,SC,+55 48 3223-5067,4.6,20,-27.5972035,-48.548356399999996,,
88010095,15,Mirantes,http://www.mirantes.com.br/,ChIJ66S5LDs4J5URkLaKGbhyjBA,"R. dos Ilhéus, 348 - Centro, Florianópolis - SC, 88010-400",Florianópolis,SC,+55 48 3223-6019,4.4,447,-27.5971238,-48.548673199999996,,
88010102,4,Boteco Rita Maria,http://instagram.com/botecoritamaria,ChIJyz4UQkg3J5URWi8mDX7VLpI,"Anitta Hoepcke da Silva, 112 Galpão 6, Loja 16 - Centro, Florianópolis - SC, 88010-220",Florianópolis,SC,,4.5,113,-27.5949366,-48.558913399999994,,
88010102,9,Electra Ramen,,ChIJq0m5VKQ5J5URE2f2ydPy7WA,"R. Hoepcke, 168 - Centro, Florianópolis - SC, 88010-130",Florianópolis,SC,+55 48 3025-6224,4.4,149,-27.5930881,-48.5583877,,
88010102,16,Le Pario,https://www.instagram.com/le_pario/,ChIJAb4GjrA5J5UR_AE5MICQkJ4,"Al. Annita Hoepcke da Silva, 112 - Galpão 6, mezanino - Centro, Florianópolis - SC, 88010-282",Florianópolis,SC,+55 48 3067-9773,4.8,395,-27.594611,-48.5592949,,
88010135,12,Tomato Forneria - Armazém Rita Maria,,ChIJJe_H8DE3J5URYrki8gjXbjI,"R. Henrique Valgas, 112 - Centro, Florianópolis - SC, 88010-220",Florianópolis,SC,,4,43,-27.595203899999998,-48.558882999999994,,
88010135,19,Oakberry Açaí - Armazem Rita Maria,https://www.armazemritamaria.com.br/operacoes,ChIJQarKYH43J5URlvYURcOdYxQ,"Al. Annita Hoepcke da Silva, 112 - Centro, Florianópolis - SC, 88010-220",Florianópolis,SC,+55 48 98460-1020,4.3,37,-27.594596799999998,-48.559217399999994,,
88010140,14,Guacamole Taqueria Top Market,https://www.guacamole.com.br/gttm,ChIJK0nTJd45J5URCkjgug4_Rew,"R. Hoepcke, 168 - Centro, Florianópolis - SC, 88010-130",Florianópolis,SC,+55 11 99751-2529,4.7,239,-27.5931876,-48.5584753,,
88010140,18,El-Kik Culinária Libanesa,https://instagram.com/elkik.culinarialibanesa?igshid=MDM4ZDc5MmU=,ChIJ9TZ3x7o5J5URqRhovhGizFc,"R. Hoepcke, 168 - Centro, Florianópolis - SC, 88010-130",Florianópolis,SC,,4.5,11,-27.5931876,-48.5584753,,
88010300,15,Rodeio Grill,,ChIJ64ZJhCQ4J5URe36RpbGq4Ys,"R. Ten. Silveira, 111 - Centro, Florianópolis - SC, 88010-300",Florianópolis,SC,+55 48 3222-1068,4.5,22,-27.5963359,-48.550576199999995,,
88010320,10,Grão & Pronto Comida Saudável (Antigo Döll),http://www.graoepronto.com.br/,ChIJBW47YiM4J5URrAWml-_OZ_M,"R. Vidal Ramos, 120 - Centro, Florianópolis - SC, 88010-320",Florianópolis,SC,+55 48 99988-0169,4.5,459,-27.5954484,-48.5503624,,
88010320,16,Sandubrasil,https://www.instagram.com/sandubrasil/,ChIJqQ-gTDs4J5URD_C5dY0vQvM,"R. Padre Miguelinho, 83 - Centro, Florianópolis - SC, 88010-550",Florianópolis,SC,+55 48 3207-9449,4.6,332,-27.5960705,-48.5489268,,
88010400,17,Biezza Restaurante,,ChIJfSQ8dTo4J5UR13EheiBIWnA,"R. Anita Garibaldi, 136 - Centro, Florianópolis - SC, 88010-500",Florianópolis,SC,+55 48 99614-5588,3,2,-27.5967602,-48.547573,,
88010410,5,Restaurante Nona Anita,,ChIJk5Zv6XM5J5URa230W5Jx3qU,"R. Tiradentes, 227 - Centro, Florianópolis - SC, 88010-430",Florianópolis,SC,+55 48 99625-6561,5,1,-27.599542999999997,-48.5482218,,
88010410,19,Muramaki Culinária Japonesa,https://muramaki.app/,ChIJcQw2Ejw4J5URgM2mglqOEpU,"Av. Mauro Ramos, 80 - casa - Centro, Florianópolis - SC, 88020-302",Florianópolis,SC,+55 48 99976-4345,4.8,316,-27.600422599999998,-48.545485199999995,,
88010440,9,Mandarina Cozinha Vegetariana,,ChIJ5RD55JM5J5URL76xl7R3wPY,"Av. Hercílio Luz, 455 - Centro, Florianópolis - SC, 88010-290",Florianópolis,SC,+55 48 3879-3078,4.8,395,-27.5987384,-48.547625499999995,,
88010440,12,Sirène Fish & Chips - Floripa - Bar,https://sirene.com.br/,ChIJP8kOgRk5J5URY5UpXFzX9hA,"R. Victor Meirelles, 230 - Centro, Florianópolis - SC, 88010-440",Florianópolis,SC,,4.7,107,-27.5993484,-48.5480045,,
88010450,2,Caçarola,https://restaurante-cacarola.business.site/,ChIJPQ9oLzs4J5URyWjU7uBurdo,"Rua Saldanha Marinho, 301 - Centro, Florianópolis - SC, 88010-450",Florianópolis,SC,+55 48 3224-5697,4.6,236,-27.5968584,-48.5482088,,
88010450,18,Salgadaria Floripa,http://salgadariafloripa.menudino.com.br/,ChIJnQwVOTs4J5UR-ZK_Hb6DOc0,"Rua Saldanha Marinho, 391 - Loja 01 - Centro, Florianópolis - SC, 88010-450",Florianópolis,SC,+55 48 99142-4867,4.6,136,-27.596136899999998,-48.5479383,,
88010904,11,Lupo Nero - pizza al taglio (bocca al lupo),,ChIJ-zaEqis5J5URGNBfs7CPDdA,"R. Vidal Ramos, 153 - Centro, Florianópolis - SC, 88010-320",Florianópolis,SC,+55 48 99147-2476,4.7,177,-27.5955312,-48.550635899999996,,
88010975,15,ILHA CHEFF,http://www.facebook.com/Ilha-Cheff-Restaurante-106487154035773/,ChIJZ8GvNEk_J5URoe4V3pfSPRU,"R. Álvaro de Carvalho, 142 - Centro, Florianópolis - SC, 88010-040",Florianópolis,SC,+55 48 3206-3605,4.4,25,-27.595978,-48.5534101,,
88015010,9,Da Ilha Burger,http://dailhaburger.com.br/,ChIJ5SQTKYk5J5URdiP_tVakwu0,"R. Antônio Dib Mussi - Centro, Florianópolis - SC, 88015-110",Florianópolis,SC,+55 48 98806-4812,3.8,31,-27.5928634,-48.551249399999996,,
88015010,19,Narb Restaurante e Lanchonete,http://www.barbeariatradicional.com/,ChIJHXe7mxg4J5URe-UXS2Lg4pM,"Av. Pref. Osmar Cunha, 472 - Centro, Florianópolis - SC, 88015-000",Florianópolis,SC,+55 48 3364-7475,,,-27.5914181,-48.5516042,,
88015010,20,Mirantes,http://www.mirantes.com.br/,ChIJw2NobSI4J5URoppNmaTTb64,"R. Dom Jaime Câmara, 57 - Centro, Florianópolis - SC, 88015-120",Florianópolis,SC,+55 48 3223-6542,4.3,319,-27.5920113,-48.552160699999995,,
88015060,10,Empadinha Mineira Centro,http://empadinhamineira.com.br/,ChIJ3yPDFCM4J5URLYCeyONfdlg,"R. Pres. Nereu Ramos, 78 - Térreo - Centro, Florianópolis - SC, 88015-010",Florianópolis,SC,+55 48 3371-4500,4.8,87,-27.5943239,-48.5500103,,
88015070,1,Life+,,ChIJl9xbJiM4J5URouu8X0W32uM,"Rua Dorval Melchíades de Souza, 721 - 2 - Centro, Florianópolis - SC, 88015-070",Florianópolis,SC,,3.5,2,-27.593163699999998,-48.5490687,,
88015080,16,Pezto Pizza,,ChIJAw7PUxY5J5URNSO1dJNni5Y,"Ceisa Center - Ed, Av. Pref. Osmar Cunha, 183 - Loja 28 - Centro, Florianópolis - SC, 88015-100",Florianópolis,SC,+55 48 3307-2002,4.8,69,-27.5939893,-48.5512498,,
88015090,10,Ponto do Pão,https://www.instagram.com/pontodopaofloripa/,ChIJvaGXWCI4J5URNmRdrygZaGE,"Av. Pref. Osmar Cunha, 310 - Centro, Florianópolis - SC, 88015-100",Florianópolis,SC,+55 48 99921-3859,4.5,2762,-27.592845999999998,-48.5512544,,
88015090,20,Botequim Floripa,,ChIJef6-xSQ4J5UR_Gpn0cW6YBA,"Av. Rio Branco, 632 - Centro, Florianópolis - SC, 88015-200",Florianópolis,SC,+55 48 3333-1234,4.4,1635,-27.5918909,-48.5519847,,
88015100,19,Mr. Fit Floripa,https://now.swfast.com.br/mrfitavriobranco,ChIJ92gb6mc5J5URkbsr810b6XQ,"Av. Rio Branco, 740 - Centro, Florianópolis - SC, 88015-202",Florianópolis,SC,+55 48 99993-5612,4.4,16,-27.5918736,-48.5509487,,
88015200,6,Veritá - saudável. de verdade.,https://deliverydireto.com.br/verita,ChIJp1FicSI4J5URYgpvIUE9zLo,"Av. Rio Branco, 622 - Centro, Florianópolis - SC, 88015-202",Florianópolis,SC,+55 48 3204-4753,4.7,122,-27.591884,-48.5521216,,
88015210,14,O Armazém,,ChIJL0dBKlI5J5URJCtIcLghx_k,"Av. Mauro Ramos, 1512 - Centro, Florianópolis - SC, 88020-302",Florianópolis,SC,,3.9,29,-27.587987,-48.542919999999995,,
88015210,19,Dolce Vita Al Mare Restaurante,https://instagram.com/dvalmare,ChIJP-X46PE5J5UR_22Cn4VVTVg,"Pátio Milano - Av. Mauro Ramos, 1512 - Centro, Florianópolis - SC, 88020-302",Florianópolis,SC,,4.2,20,-27.587954099999997,-48.542945599999996,,
88015220,3,OTAO SUSHI CENTER,http://otaosushicentro.com/,ChIJVVXZHj04J5URjEZx8LN4wVs,"Av. Rio Branco, 1093 - Centro, Florianópolis - SC, 88015-201",Florianópolis,SC,+55 48 3307-1406,4.5,498,-27.5918752,-48.5473128,,
88015220,15,Restaurante do Érico,https://www.instagram.com/restaurante.erico/,ChIJg1S0m945J5URKgIljTlfPkk,"Av. Hercílio Luz, 1212 - Centro, Florianópolis - SC, 88020-000",Florianópolis,SC,+55 48 3209-6674,4.7,230,-27.593857099999997,-48.544607799999994,,
88015220,20,Le Rose Restaurante e Café,https://le-rose-restaurante-e-cafe.negocio.site/?utm_source=gmb&utm_medium=referral,ChIJwVleGuM5J5URC4tYG4GeXfU,"R. Bocaiúva, 2224 - Loja 1 - Centro, Florianópolis - SC, 88015-530",Florianópolis,SC,+55 48 99184-6565,4.5,337,-27.5854051,-48.5466814,,
88015230,4,SalaD,,ChIJM8KjuRg4J5UR-rWY-wJs1S8,"R. Esteves Júnior, 410 - Centro, Florianópolis - SC, 88015-130",Florianópolis,SC,+55 48 3365-6739,4.7,156,-27.590742799999997,-48.5529546,,
88015240,4,Restaurante Desterro,,ChIJ63jjIOA5J5URDtrVrvnvKAE,"Av. Prof. Othon Gama D'Eça, 900 - Centro, Florianópolis - SC, 88015-240",Florianópolis,SC,+55 48 99813-6577,4.3,12,-27.5876953,-48.5510569,,
88015240,7,Casa Pataro,,ChIJ244Mb1c5J5UR8rrgpKn66gk,"R. Cel. Lopes Viêira, 105 - Centro, Florianópolis - SC, 88015-260",Florianópolis,SC,,,,-27.5898848,-48.551496,,
88015240,20,Pastel do Dino,,ChIJEZzXBxk4J5URDIwNjtHXWS0,"Av. Prof. Othon Gama D'Eça, 837 - Centro, Florianópolis - SC, 88015-240",Florianópolis,SC,+55 48 3224-7388,4.8,140,-27.5881528,-48.5513921,,
88015290,11,Empórium Bocaiuva,http://www.emporiumbocaiuva.com.br/,ChIJfajUUxk4J5URSTuOZrtxxHQ,"R. Bocaiúva, 1901 - Centro, Florianópolis - SC, 88015-530",Florianópolis,SC,+55 48 3224-1670,4.5,402,-27.58675,-48.5495805,,
88015300,1,El Señor Asador de Brasa,https://elsenorrestaurante.com.br/,ChIJgxywX345J5URdXYO9JSuxUI,"R. Bocaiúva, 2098 - Centro, Florianópolis - SC, 88015-530",Florianópolis,SC,+55 48 3113-2088,4.8,146,-27.5861378,-48.547635299999996,,
88015300,5,Liquorice Gastro Pub,,ChIJPfwZORY4J5URU37akK_YC5c,"R. Alves de Brito, 405 - Centro, Florianópolis - SC, 88015-440",Florianópolis,SC,+55 48 3037-4507,4.6,368,-27.587992999999997,-48.545395799999994,,
88015300,8,Ponta D'Agulha Costelaria Alves de Brito,,ChIJ_bSMEt85J5URHI0khOGzwpU,"R. Alves de Brito, 161 - Centro, Florianópolis - SC, 88015-440",Florianópolis,SC,+55 48 3085-0655,4.5,122,-27.5861903,-48.5469219,,
88015300,11,Divino Fogão - Beiramar,http://divinofogao.com.br/,ChIJQz_4vhY4J5UReGiUls94XfQ,"R. Bocaiúva, 2468 - 324-A - Centro, Florianópolis - SC, 88015-530",Florianópolis,SC,+55 48 3025-6808,2.7,301,-27.5849156,-48.545008499999994,,
88015300,13,Outback | Beiramar Shopping,https://www.outback.com.br/,ChIJLez9zRY4J5URFbjNICAejVM,"R. Bocaiúva, 2468 - Centro, Florianópolis - SC, 88015-530",Florianópolis,SC,+55 48 3039-0935,4.5,8323,-27.584734899999997,-48.5455658,,
88015300,17,Kikoni Japafood,https://kikoni.com.br/,ChIJESwowyI4J5UR7ESTtMSSJ_4,"R. Rafael Bandeira, 327 - Centro, Florianópolis - SC, 88015-450",Florianópolis,SC,+55 48 3365-9990,4.6,1065,-27.5858757,-48.546596199999996,,
88015300,1,Bistrô da Praça,,ChIJfyKIhz04J5URa7g2XiIa6zY,"Largo Benjamin Constant, 663 - Centro, Florianópolis - SC, 88015-390",Florianópolis,SC,+55 48 3224-1137,4.6,255,-27.5889921,-48.545885899999995,,
88015300,5,"Mana Poke: Restaurante, Comida Havaiana, Delivery em Florianópolis SC",https://manapoke.com.br/,ChIJqcUrJcg5J5URNc7OEYwJ83I,"R. Altamiro Guimarães, 260 - Centro, Florianópolis - SC, 88015-510",Florianópolis,SC,+55 48 3039-4394,5,47,-27.586061899999997,-48.5448357,,
88015300,7,El Chicano Pocket - Restaurante Mexicano no Centro,http://linktr.ee/elchicanoficial,ChIJY4NAutY5J5URZ_VotJBL7zQ,"R. Vítor Konder, 390 - Centro, Florianópolis - SC, 88015-400",Florianópolis,SC,+55 48 99932-6792,4.8,86,-27.587276199999998,-48.543364399999994,,
88015300,10,Dōkyo Japan Food,https://www.dokyo.com.br/,ChIJXQZBFxc4J5URbCkwyWYbVtE,"Pátio Milano - Av. Mauro Ramos, 1512 - Loja 12 - Centro, Florianópolis - SC, 88020-302",Florianópolis,SC,+55 48 3028-6818,4.6,182,-27.587987,-48.542919999999995,,
88015300,13,Restaurante Arandela,,ChIJU6BW2sE5J5UR1QCKkBpW99I,"R. Altamiro Guimarães, 260 - Centro, Florianópolis - SC, 88015-510",Florianópolis,SC,+55 48 99658-9929,4.7,96,-27.586061899999997,-48.5448357,,
88015300,20,Cuoco mio,https://instagram.com/cuocomio,ChIJFfUfNxw5J5UREgO6vk5dswc,"R. Rafael Bandeira, 283 - Centro, Florianópolis - SC, 88015-450",Florianópolis,SC,+55 48 99681-2222,4.4,91,-27.5861932,-48.5462279,,
88015400,9,El Costeño Carnes Nobres,,ChIJu9aU4gY5J5URV2nQUax50yc,"Av. Mauro Ramos, 1512 - Centro, Florianópolis - SC, 88020-302",Florianópolis,SC,+55 48 99655-7833,4.4,91,-27.587987,-48.542919999999995,,
88015400,13,Takk,,ChIJHSJtrKY5J5URB342ED7lXoo,"Av. Mauro Ramos, 1512 - Centro, Florianópolis - SC, 88020-302",Florianópolis,SC,+55 48 99815-5817,4.6,13,-27.587987,-48.542919999999995,,
88015400,18,City Carbone,,ChIJfYimKzI5J5URsR1C1CuWCiI,"Av. Mauro Ramos, 1512 - Centro, Florianópolis - SC, 88020-302",Florianópolis,SC,+55 48 99976-6553,3.1,65,-27.587987,-48.542919999999995,,
88015400,20,Disblenda Café,http://instagram.com/disblenda,ChIJ18-Kh0M5J5URMpCgxphH8pw,"R. Ferreira Lima, 107 - Loja 1 - Centro, Florianópolis - SC, 88015-420",Florianópolis,SC,+55 48 3371-2966,4.8,416,-27.589817999999998,-48.5449323,,
88015410,8,Cumbuca Açaí,,ChIJRzcjx6w5J5URO3BNYdDzLes,"Av. Mauro Ramos, 1512 - Loja 25 - Centro, Florianópolis - SC, 88020-302",Florianópolis,SC,+55 48 99672-0049,4.6,41,-27.587987,-48.542919999999995,,
88015410,14,BREAD PIDE - comida árabe | Pátio Milano,https://breadpide.com.br/,ChIJt3zu_-45J5URp2X2d-RkRg0,"Pátio Milano - Av. Mauro Ramos, 1512 - Centro, Florianópolis - SC, 88020-302",Florianópolis,SC,+55 48 99922-3994,4.6,72,-27.5879589,-48.542893,,
88015410,19,Panko Restô Restaurante,,ChIJ0TYnsIA5J5URzNXBPSwAj-o,"Av. Mauro Ramos, 1450 - Centro, Florianópolis - SC, 88020-302",Florianópolis,SC,,5,3,-27.588654199999997,-48.542855499999995,,
88015425,10,It's Italian Trattoria do Guto,http://trattoriadoguto.com.br/,ChIJL1A38zs4J5URAUzqUZ44gOU,"Av. Hercílio Luz, 1169 - Centro, Florianópolis - SC, 88020-001",Florianópolis,SC,+55 48 3224-0974,4.3,1807,-27.5940527,-48.5450374,,
88015440,6,Churrasquim Espetinhos Gourmet,http://www.churrasquim.com.br/,ChIJvw1uKhc4J5UR_UG84gd__6Y,"R. Altamiro Guimarães, 60 - Centro, Florianópolis - SC, 88015-510",Florianópolis,SC,+55 48 3206-0512,4.4,1250,-27.584752599999998,-48.5462758,,
88015440,13,Doshirakorea,http://instadelivery.com.br/doshirakorea,ChIJVVb4Ic9JJ5URV0gxwlqAFLA,"R. Altamiro Guimarães, 18 - Centro, Florianópolis - SC, 88015-510",Florianópolis,SC,+55 48 99166-9505,4.7,430,-27.5846755,-48.546306099999995,,
88015440,14,Las Leñas,https://instagram.com/laslenasparrillauruguaya,ChIJDeFxIvo5J5URSlroOvnGf30,"R. Bocaiúva, 2468 - Centro, Florianópolis - SC, 88015-530",Florianópolis,SC,,4.4,123,-27.5849156,-48.545008499999994,,
88015440,15,L’île Brasserie,http://www.lilegastronomia.com.br/,ChIJv8Muy_A5J5UR70BpiLAn4rY,"Av. Jorn. Rubéns de Arruda Ramos, 2596 - Térreo - Centro, Florianópolis - SC, 88015-702",Florianópolis,SC,+55 48 99211-0258,4.5,154,-27.5839397,-48.5453726,,
88015440,17,Vivenda do Camarão,http://www.vivendadocamarao.com.br/,ChIJAxMtuRY4J5URGn2H_P6Yntk,"R. Bocaiúva, 2468 - Centro, Florianópolis - SC, 88015-902",Florianópolis,SC,+55 48 3223-4589,3.8,102,-27.585152899999997,-48.5453368,,
88015440,19,Madero Steak House Beiramar Shopping,http://www.restaurantemadero.com.br/,ChIJAxMtuRY4J5URXUJYrxjOB64,"R. Bocaiúva, 2468 - L1 - Centro, Florianópolis - SC, 88015-902",Florianópolis,SC,+55 48 3112-0766,4.5,4201,-27.584549199999998,-48.5453863,,
88015440,20,Kariká Gastrobar,https://instagram.com/karikagastrobar?igshid=YmMyMTA2M2Y=,ChIJjdMXf2I5J5URh2kdcwNNaLM,"Tv. Harmônia, 44 - Centro, Florianópolis - SC, 88015-550",Florianópolis,SC,+55 48 3307-3285,4.7,64,-27.5867647,-48.5506652,,
88015440,1,Botequim Beiramar,http://www.instagram.com/botequimbeiramar,ChIJGYWXJTc5J5URz3V2S1jiQSs,"Av. Jorn. Rubéns de Arruda Ramos, 2568 - Centro, Florianópolis - SC, 88015-702",Florianópolis,SC,+55 48 3091-0833,4.1,203,-27.5841104,-48.5455536,,
88015440,3,Montana Grill,http://www.montanagrill.com.br/,ChIJ4zbmXRc4J5URAbR4I26nOkA,"R. Bocaiúva, 2468 - Centro, Florianópolis - SC, 88015-530",Florianópolis,SC,+55 48 3204-9642,3.3,137,-27.584495099999998,-48.5448496,,
88015440,11,Kebab Faruk - Comida Árabe,https://instagram.com/kebab_faruk?igshid=OGQ5ZDc2ODk2ZA==,ChIJByk3spE5J5URB4rLF_YPVjU,"R. Demétrio Ribeiro, 148 - Centro, Florianópolis - SC, 88020-700",Florianópolis,SC,+55 48 99699-4233,4.7,1038,-27.583544,-48.5434766,,
88015440,12,Jay Bistro Miramar,https://widget.getinapp.com.br/D6W29g1Q,ChIJzyqWumw5J5UR2h7wcgBB8Wg,"R. Altamiro Guimarães, 20 - Centro, Florianópolis - SC, 88015-510",Florianópolis,SC,+55 48 3054-1234,4.4,172,-27.584692099999998,-48.546289699999996,,
88015440,20,Palácio China,,ChIJAxMtuRY4J5UR_GfluDXBQ3U,"R. Bocaiúva, 2468 - 331 - Centro, Florianópolis - SC, 88015-902",Florianópolis,SC,+55 48 3024-1679,2.8,39,-27.584866599999998,-48.5447967,,
88015450,15,Griletto,http://www.griletto.com.br/,ChIJAxMtuRY4J5URoOyNRael6OI,"R. Bocaiúva, 2468 - 334 - Centro, Florianópolis - SC, 88015-902",Florianópolis,SC,+55 48 3204-7716,1.7,47,-27.5848744,-48.5448056,,
88015500,2,La Cave Gastronomia e Vinhos,,ChIJH-aKixY4J5URwgFE59QfD5g,"R. Demétrio Ribeiro, 51 - Centro, Florianópolis - SC, 88020-700",Florianópolis,SC,+55 48 3037-2828,4.7,607,-27.584249399999997,-48.543951799999995,,
88015500,11,Black Sheep Sushi Bar,http://www.theroof.com.br/black-sheep.html,ChIJF_8hRhE4J5URhFbkZHZmUWk,"Av. Jorn. Rubéns de Arruda Ramos, 2746 - Centro, Florianópolis - SC, 88015-702",Florianópolis,SC,+55 48 99189-1005,4.5,156,-27.583284499999998,-48.5445359,,
88015500,12,Spoleto | Beiramar Shopping,https://www.spoleto.com.br/tabs/cardapioapp,ChIJAxMtuRY4J5URY--KZnXSoUE,"Beiramar Shopping - R. Bocaiúva, 2468 - Loja 330 - Centro, Florianópolis - SC, 88015-902",Florianópolis,SC,+55 48 3039-0390,3.9,291,-27.5848776,-48.5450514,,
88015500,15,Texano Grill | Beiramar Shopping,,ChIJPcMwZyI4J5UR_g2AxYD7Y3s,"R. Bocaiúva, 2468 - Centro, Florianópolis - SC, 88015-120",Florianópolis,SC,+55 48 3222-3556,4.1,1158,-27.584867,-48.544796999999996,,
88015510,10,Botequim Guanabara,http://www.botequimguanabara.com.br/,ChIJD5pO9hU4J5URsvziTaTFm_8,"Av. Mauro Ramos, 1512 - Centro, Florianópolis - SC, 88020-301",Florianópolis,SC,+55 48 3036-2729,4.4,92,-27.5879871,-48.542919999999995,,
88015520,4,Boteco da Ilha,https://www.instagram.com/botecodailhafloripa/,ChIJCbrz9Rk4J5URHBVsHnAJ0nw,"Av. Beira Mar Norte, 2100 - Centro, Florianópolis - SC, 88015-540",Florianópolis,SC,+55 48 3333-5457,4.4,1456,-27.586019999999998,-48.5497576,,
88015530,7,OnniBap Korea,,ChIJX2IEXK85J5URvoNtUvcZmas,"Tv. Harmônia, 50 - Centro, Florianópolis - SC, 88015-550",Florianópolis,SC,+55 48 99166-9505,,,-27.5866729,-48.5507238,,
88015530,12,Salve! Pizzaria napolitana,http://www.pizzariasalve.com.br/,ChIJi9u60oQ5J5URtoQO0y_vUWg,"Tv. Harmônia, n.45 - Centro, Florianópolis - SC, 88015-550",Florianópolis,SC,+55 48 3879-7503,4.6,212,-27.586693,-48.5509096,,
88015530,14,"Empório Dom Casmurro - Bistrô, Café & Livros",,ChIJN3h7SfQ5J5URA6CZY02o5Es,"Av. Prof. Othon Gama D'Eça, 900 - loja 02 - Centro, Florianópolis - SC, 88015-240",Florianópolis,SC,+55 48 99175-4066,4.6,34,-27.5875301,-48.551045699999996,,
88015600,5,Artesania Choripanes,http://www.artesaniachoripanes.com.br/,ChIJ8V10Y3g3J5URExEPYULy5_U,"R. Felipe Schmidt, 1333 - Salas 1 & 2 - Centro, Florianópolis - SC, 88010-000",Florianópolis,SC,+55 48 99156-7703,4.7,226,-27.5909576,-48.5614275,,
88015601,6,Aly's Classic Burger,http://alysburger.com.br/,ChIJKbVPiTY5J5URbiz5dYID2Es,"R. Des. Arno Hoeschl, 279 - Centro, Florianópolis - SC, 88015-620",Florianópolis,SC,+55 48 3206-1261,4.7,422,-27.5898848,-48.5576346,,
88015601,13,Spaccio RAR Florianópolis,https://www.spacciorar.com.br/,ChIJKV2fRaQ3J5URPsc6_9G_amQ,"R. Alm. Lamego, 871 - Centro, Florianópolis - SC, 88015-600",Florianópolis,SC,+55 48 98873-4725,4.9,49,-27.589584,-48.5594876,,
88015605,4,Papparella Pizzaria,http://www.papparella.com.br/,ChIJLXOfDPY3J5URfpOR810hT7k,"Av. Jorn. Rubéns de Arruda Ramos, 1560 - Centro, Florianópolis - SC, 88015-700",Florianópolis,SC,+55 48 3222-1455,4.5,2952,-27.5877947,-48.5547781,,
88015605,6,Oinc!,,ChIJ7_gRR0U5J5URmpkVO8WcWOs,"R. Esteves Júnior, 775 - Centro, Florianópolis - SC, 88015-130",Florianópolis,SC,,4.8,14,-27.587784,-48.5536165,,
88015902,17,SOLOPIZZA | Beiramar Shopping,http://www.solopizza.com.br/,ChIJ2dHCtxY4J5URGwamIb7lAUM,"R. Bocaiúva, 2468 - 329 - Centro, Florianópolis - SC, 88015-902",Florianópolis,SC,+55 48 3207-0032,4.5,155,-27.584866599999998,-48.5447967,,
88015902,19,Japex | Beiramar Shopping,,ChIJlzcpuRY4J5URsKP4SXRebvE,"R. Bocaiúva, 2468 - 333 - Centro, Florianópolis - SC, 88015-902",Florianópolis,SC,+55 48 3025-4888,3.1,70,-27.584677,-48.545054,,
88015973,16,10 pastéis,https://10pasteis.com.br/,ChIJAxMtuRY4J5URNK9fS2SZ29A,"R. Bocaiúva, 2468 - 335 - Centro, Florianópolis - SC, 88015-902",Florianópolis,SC,+55 48 3225-5622,2.2,102,-27.584866599999998,-48.5447967,,
88015973,20,Café Cultura,http://www.cafeculturabrasil.com/,ChIJnVcBg1M5J5URmCZoVVtn0Zs,"R. Bocaiúva, 2468 - Centro, Florianópolis - SC, 88015-902",Florianópolis,SC,+55 48 99142-9331,4.5,357,-27.5849156,-48.545008499999994,,
88020000,10,Bar e restaurante Hercílio 842,https://hercilio842.negocio.site/?utm_source=gmb&utm_medium=referral,ChIJc_o9X7s5J5URoyQ3KhAST0E,"Av. Hercílio Luz, 842 - Centro, Florianópolis - SC, 88020-001",Florianópolis,SC,+55 48 3364-8598,4.6,333,-27.5966727,-48.5460719,,
88020000,18,Home Sushi Home,https://homesushihome.accon.app/,ChIJF1G7ZgE5J5URtf_rsuwTcrk,"R. Anita Garibaldi, 336 - Centro, Florianópolis - SC, 88020-120",Florianópolis,SC,+55 48 99153-8317,4.7,33,-27.597683999999997,-48.546057,,
88020001,6,Kibelicia,,ChIJ3e7OMzo5J5URwid8OvJS_k0,"R. Gen. Bittencourt, 576 - Sala 03 - Centro, Florianópolis - SC, 88020-100",Florianópolis,SC,+55 48 99821-5277,5,12,-27.5956713,-48.5439508,,
88020001,7,Afonso Burger Bar,https://www.facebook.com/afonsoburger/,ChIJXeHtyjs4J5UReAlS1WmpOTE,"Av. Hercílio Luz, 1006 - Centro, Florianópolis - SC, 88020-001",Florianópolis,SC,,4.6,4705,-27.595817999999998,-48.5448443,,
88020001,10,Boemia Hamburgueria,http://www.boemiahamburgueria.com.br/,ChIJ_eLi8js4J5URpFXl-YUQYNE,"Av. Hercílio Luz, 1179 - Centro, Florianópolis - SC, 88020-001",Florianópolis,SC,+55 48 3037-4343,4.5,754,-27.593944,-48.544985,,
88020001,11,Cachorro Quente do Afonso,https://www.instagram.com/dogdoafonso,ChIJFzbeuhE6J5URnEYcvX2IGMg,"Av. Hercílio Luz, 1050 - Centro, Florianópolis - SC, 88020-001",Florianópolis,SC,,4.4,1884,-27.595461999999998,-48.5448363,,
88020001,13,El Guate Mexicano Centro,,ChIJ6ezyvjMlJ5URUOfsY7woO9c,"Centro de Florianópolis - Av. Hercílio Luz, 1012 - centro de, Florianópolis - SC, 88020-001",Florianópolis,SC,+55 48 98865-8099,4.8,81,-27.5956722,-48.544889,,
88020001,14,Restaurante Frigideira da Ilha,,ChIJIS0IqD44J5URGZF5loHFDI8,"Av. Hercílio Luz, 1376 - Centro, Florianópolis - SC, 88020-303",Florianópolis,SC,+55 48 3879-3919,4.5,58,-27.5926747,-48.543717799999996,,
88020001,6,Mané Gourmet,https://www.instagram.com/manegourmetrestaurante/,ChIJq6p2vT44J5URljlCobOeJNg,"R. Crispim Mira, 277 - Centro, Florianópolis - SC, 88020-540",Florianópolis,SC,+55 48 3223-5380,4.7,123,-27.5918101,-48.542973499999995,,
88020001,16,Volo Pizzaria,https://www.cardapiodigital.io/volopizza/catalog?state=catalog,ChIJQ_-uC8w5J5URgdlII1R0GwM,"R. Gen. Bittencourt, 571 - Centro, Florianópolis - SC, 88020-100",Florianópolis,SC,+55 48 3304-8058,4.9,108,-27.5954533,-48.5439997,,
88020015,10,Subway,,ChIJabiooj44J5UR1pbIYuJRij0,"Av. Mauro Ramos, 1082 - Centro, Florianópolis - SC, 88020-301",Florianópolis,SC,+55 48 99919-0283,4.1,756,-27.5918164,-48.543076,,
88020015,17,Super Assados,https://instagram.com/superassados,ChIJI3t9oT44J5URlT_UFBv01kk,"Av. Hercílio Luz, 1435 - Centro, Florianópolis - SC, 88010-145",Florianópolis,SC,+55 48 3364-7401,4.1,169,-27.592098399999998,-48.5434248,,
88020020,17,"King Crispy: Restaurante, Frango Frito, Batata Rústica, Lanches, Florianópolis",,ChIJC_Jj_AE5J5URE37oSKsfeqM,"R. Hermann Blumenau, 279 - Loja 1 - Centro, Florianópolis - SC, 88020-020",Florianópolis,SC,+55 48 3028-1008,4.9,44,-27.5940768,-48.5436869,,
88020030,15,Tomato Pasta e Pizza Bewiki,,ChIJb1u10ow5J5URfsBxYv4hzYE,"R. Hermann Blumenau, 110 - Centro, Florianópolis - SC, 88020-020",Florianópolis,SC,+55 48 99102-7711,4.7,9,-27.5951542,-48.5454363,,
88020100,6,Temakeria Japesca - Floripa,https://japesca.app/floripa/,ChIJeR5rnuU5J5URJy9myVLIdwA,"R. Gen. Bittencourt, 576 - sala 1 - Centro, Florianópolis - SC, 88020-100",Florianópolis,SC,+55 48 98825-2661,4,60,-27.5956713,-48.5439508,,
88020100,12,La ship,,ChIJ7Tlau-w5J5URYyuLnZFoFPk,"R. Júlio Moura, 198 - Centro, Florianópolis - SC, 88020-150",Florianópolis,SC,,,,-27.5967417,-48.544297099999994,,
88020120,4,Tatsu,https://tatsu.com.br/,ChIJr_O0T8A5J5URAPafXdOQMWc,"R. Gen. Bittencourt, 280 - Centro, Florianópolis - SC, 88020-100",Florianópolis,SC,+55 79 98844-8655,,,-27.5974549,-48.5460618,,
88020175,16,+Natural Tribunal Justiça,http://www.maisnatural.net/,ChIJ1QgvqsQ5J5URbnKiJxvsfi8,"Restaurante do Tribunal de Justiça de Santa Catarina - R. Dr. Álvaro Milen da Silveira, 208 - Centro, Florianópolis - SC, 88020-901",Florianópolis,SC,+55 48 99931-2068,,,-27.6024323,-48.5485052,,
88020185,2,Fruta Mania,,ChIJA442WOU5J5UReSTXPASZ9c8,"R. Silva Jardim, 360 - Centro, Florianópolis - SC, 88020-200",Florianópolis,SC,+55 48 99962-5443,5,102,-27.6038362,-48.546579799999996,,
88020185,15,O Istepo,http://o-istepo.negocio.site/,ChIJRa5XVjI4J5URDXyqpAW_LYs,"R. Silva Jardim, 575 - José Mendes, Florianópolis - SC, 88020-302",Florianópolis,SC,+55 48 3225-8763,4.5,211,-27.6062257,-48.546675799999996,,
88020199,1,Bouquet Garni Gastronomia,https://www.bouquetgarnigastronomia.com.br/contatos-bouquet-garni/,ChIJq6oalzI4J5UREwPz2jEBaw8,"R. Silva Jardim, 830 - Centro, Florianópolis - SC, 88020-200",Florianópolis,SC,+55 48 3212-0700,4.2,5,-27.607866299999998,-48.5479969,,
88020199,2,Librizzi Macarronada Italiana Al Mare,https://www.macarronada.com.br/,ChIJzVuHunA5J5URLSpbplHJQak,"R. Silva Jardim, 1214 - Centro, Florianópolis - SC, 88020-281",Florianópolis,SC,+55 48 99125-9887,4.6,135,-27.610680499999997,-48.5494923,,
88020199,3,Gulla's Hot Dog,https://www.facebook.com/gullas.hd.1,ChIJWeIhyhg5J5UR2YfhBBFDDiM,"R. Silva Jardim, 591 - Centro, Florianópolis - SC, 88020-199",Florianópolis,SC,+55 48 99121-7765,2.9,7,-27.606340499999998,-48.5466628,,
88020199,7,Restaurante e Pizzaria Ilha dos Açores,http://www.ilhadosacoresrestaurante.com.br/,ChIJ__-_O7Q5J5URpHlYJXgQ8RI,"Av. Pref. Waldemar Vieira, 327 - Loja 04 - Saco dos Limões, Florianópolis - SC, 88045-500",Florianópolis,SC,+55 48 3067-6550,4.5,1313,-27.6092338,-48.5359039,,
88020199,11,Casa da Ostra Floripa,,ChIJCU-Tlc05J5URrCpldx8499g,"R. José Maria da Luz, 195 - José Mendes, Florianópolis - SC, 88021-000",Florianópolis,SC,+55 48 98803-6262,4.4,349,-27.6124051,-48.547379299999996,,
88020199,10,Bem a Jeito restaurante,,ChIJTa7aC7Q5J5URjhYuD73KHfM,"Rua João Motta Espezim, 612 - Saco dos Limões, Florianópolis - SC, 88045-400",Florianópolis,SC,+55 48 3333-9979,4.6,277,-27.608037699999997,-48.5339222,,
88020250,20,Salt Dog,https://www.saltdog.com.br/,ChIJk6UPu7U5J5UR1NDX7OfgPiU,"Rua João Motta Espezim, 241 - Saco dos Limões, Florianópolis - SC, 88045-400",Florianópolis,SC,+55 48 3225-8175,4.6,636,-27.608390399999998,-48.5372367,,
88020260,6,Fechada,,ChIJIxrmxLU5J5URtDbuaD7Hp8o,"Av. Pref. Waldemar Vieira, 199 - Saco dos Limões, Florianópolis - SC, 88045-500",Florianópolis,SC,,4.7,21,-27.609400599999997,-48.5370646,,
88020301,17,Black Lion Casa Gastronômica,,ChIJk4b-ZWw5J5URLdR5L32yCwE,"Rua Monsenhor Topp, 134 - Centro, Florianópolis - SC, 88020-500",Florianópolis,SC,+55 48 3113-4701,5,26,-27.592648999999998,-48.541823,,
88020410,7,Floripa Pizza,,ChIJi-uw8zk4J5URA8zvZoRdugw,"R. Silveira de Souza, 98 - Centro, Florianópolis - SC, 88020-410",Florianópolis,SC,+55 48 3225-3100,4.2,39,-27.5970147,-48.5433531,,
88020420,12,Moochacho (Trindade),http://www.moochacho.com.br/,ChIJcWoPm1M4J5URzmeQSsCH3Wo,"R. Des. Vítor Lima, 498 - Trindade, Florianópolis - SC, 88040-400",Florianópolis,SC,+55 48 3371-0537,4.7,2892,-27.597852999999997,-48.5245107,,
88020600,13,Restaurante Pudica Buffet e Marmitas,https://rappi.app.link/NmcHeq6nK4,ChIJ30gSnBU4J5URDmSMgbSKMYc,"R. Djalma Moellman, 156 - Centro, Florianópolis - SC, 88020-670",Florianópolis,SC,+55 48 3224-6870,4.4,104,-27.5868206,-48.541656599999996,,
88020610,20,Cité Rooftop,http://www.citerooftop.com.br/,ChIJH0ZvIKc5J5URlHnpaXLg528,"R. Ângelo La Porta, 53 - Centro, Florianópolis - SC, 88020-600",Florianópolis,SC,+55 48 99640-1341,4.4,86,-27.587472899999998,-48.542423199999995,,
88020675,8,St. Claire,http://www.instagram.com/stclairefln,ChIJCXWo1Es5J5URWkCIAjZw_I4,"Av. Mauro Ramos, 1512 - Centro, Florianópolis - SC, 88020-300",Florianópolis,SC,+55 48 99116-9869,4.4,174,-27.587973299999998,-48.5428953,,
88025005,17,Galeteria Recanto do Sabor,https://galeteria-recanto-do-sabor.negocio.site/?utm_source=gmb&utm_medium=referral,ChIJ_buyJkM5J5URcDvbpmLxCqU,"R. Rui Barbosa - Agronômica, Florianópolis - SC, 88025-310",Florianópolis,SC,+55 48 3025-6494,3,5,-27.5755585,-48.540798599999995,,
88025005,20,Arte de Comer,,ChIJEYxmQA04J5UR3XCMGBCsxr0,"R. São Vicente de Paula, 103 - Agronômica, Florianópolis - SC, 88025-330",Florianópolis,SC,+55 48 3224-4016,4.6,122,-27.576150199999997,-48.5397799,,
88025035,18,Trajeto Saúde,,ChIJT9qKX244J5URB7T8wg84obM,"R. Visc. de Taunay, 320 - Agronômica, Florianópolis - SC, 88025-520",Florianópolis,SC,+55 48 99954-0127,1,1,-27.5770542,-48.5324217,,
88025090,18,Restaurante Tia Mara,,ChIJ1f0Hn805J5URsGPQ09cVUfg,"R. Rui Barbosa, 152 - Agronômica, Florianópolis - SC, 88025-300",Florianópolis,SC,,,,-27.5745738,-48.535495499999996,,
88025152,10,Shawarmeria Culinária Árabe,https://shawarmeria.saipos.com/home,ChIJQzDErWU4J5UR5VMXeZqDyDY,"R. Idalina Pereira dos Santos, 107 - Agronômica, Florianópolis - SC, 88025-250",Florianópolis,SC,+55 48 3304-5555,4.4,1058,-27.5762987,-48.5267141,,
88025152,20,Restaurante Riocheff,https://restauranteriocheff.negocio.site/,ChIJfxvrgV04J5URBSCKhoyugjo,"R. Lauro Linhares, 306 - Trindade, Florianópolis - SC, 88036-000",Florianópolis,SC,+55 48 3333-2066,4.5,129,-27.5822883,-48.526399399999995,,
88025175,19,Tsa Restaurante,,ChIJLYflGHA4J5URdj98PpvtLD0,"Rua Paschoal Apóstolo Pítsica - Agronômica, Florianópolis - SC, 88025-255",Florianópolis,SC,,,,-27.573329299999997,-48.529843299999996,,
88025190,4,Beira Mar Grill,,ChIJ00DYDGU4J5URs1ZH-XHy4_g,"Av. Gov. Irineu Bornhausen, 5188 - Agronômica, Florianópolis - SC, 88025-201",Florianópolis,SC,+55 48 3222-3556,4.5,805,-27.5748116,-48.5274317,,
88025190,5,Vó Amélia,,ChIJPz2dhm84J5UR5lvgpBhZ94U,"R. Antônio Carlos Ferreira, 218 - Agronômica, Florianópolis - SC, 88025-210",Florianópolis,SC,+55 48 3333-2468,4.5,143,-27.575376499999997,-48.529129499999996,,
88025190,16,Toca do Baron,,ChIJcyNy8WU4J5URHZ--8bho9OQ,"R. Delminda Silveira, 758 - Agronômica, Florianópolis - SC, 88025-500",Florianópolis,SC,+55 48 99998-6175,4.6,34,-27.5772388,-48.528389999999995,,
88025200,2,M & J Nhoqueria da ilha,,ChIJXzEj_Ig5J5URauch-mA7BlM,"Servidão Santo Antônio, 111 - Agronômica, Florianópolis - SC, 88025-228",Florianópolis,SC,+55 48 98458-0757,1,1,-27.574724999999997,-48.529829899999996,,
88025200,10,BRAZILIAN,https://instagram.com/cachorroquentebrazilian?igshid=YmMyMTA2M2Y=,ChIJlwYE85w5J5URE6FmRUMHkCU,"R. Alm. Carlos da Silveira Carneiro, 50 - Agronômica, Florianópolis - SC, 88025-350",Florianópolis,SC,+55 48 98432-3796,4.9,37,-27.5754017,-48.538595,,
88025200,11,Família Tagliari Restaurante,http://www.familiatagliari.com.br/,ChIJuwi9Y2U4J5UR_qt12hXqb8s,"R. Antônio Carlos Ferreira, 136 - Agronômica, Florianópolis - SC, 88025-210",Florianópolis,SC,+55 48 3025-5133,4.6,395,-27.5747884,-48.528702499999994,,
88025200,14,Mirantes,http://www.mirantes.com.br/,ChIJNxcpXZo5J5UR_7oVC9CniTo,"R. Antônio Carlos Ferreira, 114 - Agronômica, Florianópolis - SC, 88025-210",Florianópolis,SC,+55 48 3304-5669,4.4,10,-27.5747219,-48.5286366,,
88025200,17,À Brasileira - Comida Caseira - Disk Marmitex,https://www.facebook.com/abrasileirafloripa/,ChIJc83Jc284J5URsspbltWxJuA,"R. Delminda Silveira, 581 - Agronômica, Florianópolis - SC, 88025-500",Florianópolis,SC,+55 48 99691-2897,4.4,117,-27.5763984,-48.529711,,
88025200,18,Restaurante Temperoo,,ChIJWwKMAXk5J5UR3imBEigVJ3M,"R. Delminda Silveira, 649 - Agronômica, Florianópolis - SC, 88025-500",Florianópolis,SC,+55 48 99976-0125,4.9,24,-27.576725,-48.5291371,,
88025200,19,Restaurante Quintal 206,http://restaurantequintal206.com.br/,ChIJ3dpPjIM5J5URz7kmPWOzM8k,"R. Dr. Carlos Corrêa, 206 - Agronômica, Florianópolis - SC, 88025-250",Florianópolis,SC,+55 48 99146-0206,4.5,122,-27.5758168,-48.526762899999994,,
88025200,4,Rica Pizza,,ChIJUT2wj3I4J5URtRdxevXBGiA,"Tv. Riachuelo, 29 - Agronômica, Florianópolis - SC, 88025-420",Florianópolis,SC,+55 48 3334-0231,5,2,-27.575532,-48.5368236,,
88025200,8,Australia Grill,,ChIJ1cD9YnE4J5URLTR1SxyhGdk,"Av. Gov. Irineu Bornhausen, 5188 - Agronômica, Florianópolis - SC, 88025-201",Florianópolis,SC,+55 48 3024-3655,3.9,53,-27.5751518,-48.5276885,,
88025200,15,Bob's Burgers,https://www.bobs.com.br/,ChIJcbOac105J5UR0QfQ-HnGEFA,"Av. Gov. Irineu Bornhausen, 5188 - Agronômica, Florianópolis - SC, 88025-202",Florianópolis,SC,+55 48 3322-2557,4,1283,-27.574288499999998,-48.5278339,,
88025200,18,Restaurante Camarão Express- Florianópolis- Angeloni Beira Mar -,https://camarao-express-angeloni-beira-mar.negocio.site/?utm_source=gmb&utm_medium=referral,ChIJidAgwr85J5URJX1XDSn_4aw,"Av. Gov. Irineu Bornhausen, 5288 - Loja 5 - Agronômica, Florianópolis - SC, 88025-202",Florianópolis,SC,,4.9,67,-27.575264699999998,-48.5272417,,
88025210,8,Le Chef Express,http://www.lechefexpress.com.br/,ChIJyRvb1AA5J5URtQ-R-t8qKrs,"R. Dr. Carlos Corrêa, 236 - Agronômica, Florianópolis - SC, 88025-250",Florianópolis,SC,+55 48 3333-0550,4.6,63,-27.575728299999998,-48.5265968,,
88025210,12,Beira Mar Sushi,,ChIJ883p6XY5J5UR4wxuP_4qD0A,"Av. Gov. Irineu Bornhausen, 5288 - Loja 02 - Agronômica, Florianópolis - SC, 88025-202",Florianópolis,SC,+55 48 3304-7951,3,20,-27.574794999999998,-48.527636,,
88025210,16,DeDéko's Pizza & Burguer,https://www.cardapiodigital.io/dedekospizzaburguer/catalog,ChIJ86HauPI5J5UREX9uD0X1pqE,"R. Antônio Carlos Ferreira, n° 218 - Agronômica, Florianópolis - SC, 88025-211",Florianópolis,SC,+55 48 99605-9477,4.9,150,-27.575405399999998,-48.5291371,,
88025210,17,Dona Matuta Café & Bistrô,,ChIJlxXZxsE5J5URh7N35IgcmaM,"Rua Paschoal Apóstolo Pítsica, 4936 - Agronômica, Florianópolis - SC, 88025-255",Florianópolis,SC,+55 48 99103-7006,5,1,-27.5734677,-48.5298503,,
88025210,19,L'Entrecôte de Paris - Delivery,https://www.lentrecotedeparis.com.br/restaurantes/,ChIJnZ8AiUk5J5UR52npquZiDog,"R. Alba Dias Cunha, 244 - Cozinha 1 - Trindade, Florianópolis - SC, 88036-020",Florianópolis,SC,+55 48 99206-8857,4.3,20,-27.580119099999997,-48.5248774,,
88025210,20,Alquimia do Sabor,,ChIJxXEPhV04J5URGkt4GrkTjIc,"R. Trajano Margarida, 62 - Trindade, Florianópolis - SC, 88036-050",Florianópolis,SC,+55 48 3025-2631,4,5,-27.5823792,-48.5255832,,
88025210,2,CHEFF MEIRELLES,https://www.ifood.com.br/delivery/florianopolis-sc/cheff-meirelless-trindade/8a3ae590-1003-43ac-a420-76d0403a4d18?UTM_Medium=share,ChIJD2l8b2k5J5URqKDdrwX857E,"R. Lauro Linhares, 262 - c - Trindade, Florianópolis - SC, 88036-000",Florianópolis,SC,+55 48 99103-7689,5,9,-27.5818938,-48.5265779,,
88025210,9,Brazil Bowlz,https://www.instagram.com/brazilbowlz/,ChIJKSd5H0LckQcRJteoHupHRHw,"R. Delminda Silveira, 535 - Agronômica, Florianópolis - SC, 88025-500",Florianópolis,SC,+55 48 99201-6465,,,-27.575922,-48.529781899999996,,
88025210,12,Cantinho dos Assados,,ChIJsQvogmc4J5URZnmsNwiIhkA,"R. Lauro Linhares, 229 - Trindade, Florianópolis - SC, 88036-000",Florianópolis,SC,+55 48 98813-7969,4.7,79,-27.581458899999998,-48.5264293,,
88025210,13,ORETACHI SUSHI DELIVERY,https://instagram.com/oretachisushi?igshid=OGQ5ZDc2ODk2ZA%3D%3D&utm_source=qr,ChIJo3iNKsE3J5UR88_B22gt8js,"R. Trajano Margarida - Trindade, Florianópolis - SC, 88036-050",Florianópolis,SC,+55 48 99163-3829,2.8,10,-27.582514399999997,-48.525749,,
88025210,14,Sal y Fuego Restaurante,http://www.salyfuego.com.br/,ChIJP-6Jo_k4J5URxba5FO29Rns,"Praça de Alimentação - Av. Madre Benvenuta, 687, Loja 305 Piso L3 - Santa Monica, Florianópolis - SC, 88035-000",Florianópolis,SC,+55 48 3067-9985,4.2,539,-27.5897538,-48.5152812,,
88025212,10,Mini Kalzone - Capitão Gourmet,https://www.minikalzone.com.br/,ChIJfcQ8WXVFJ5URkw2vb5a8R7Y,"R. Lauro Linhares, 600 - Trindade, Florianópolis - SC, 88036-001",Florianópolis,SC,+55 48 3025-3727,4.4,2594,-27.584809099999998,-48.524994799999995,,
88025212,14,Espaço da Gula,,ChIJxZYAhGc4J5URPMgxdiUPtTM,"R. Lauro Linhares, 244 - Trindade, Florianópolis - SC, 88036-000",Florianópolis,SC,+55 48 3334-1700,4.3,182,-27.581744699999998,-48.5266167,,
88025220,4,A Lanchonete Colégio Geração,https://www.facebook.com/ALANCHONETE/,ChIJgdwbcMk5J5UR52-jOp1jrkU,"R. São João Batista, 60 - Agronômica, Florianópolis - SC, 88025-230",Florianópolis,SC,+55 48 3365-0816,1.3,3,-27.5739651,-48.5295997,,
88025260,10,S2 Dark Kitchen,,ChIJSQUdyak5J5URMXmGqNgWlww,"R. Idalina Pereira dos Santos, 107 - Agronômica, Florianópolis - SC, 88025-260",Florianópolis,SC,+55 48 99108-8880,,,-27.5762987,-48.5267141,,
88025300,4,Hambúrguer do vizinho,,ChIJ6_ahle45J5UR_W58Cx6xboI,"R. Rui Barbosa, 398 - Agronômica, Florianópolis - SC, 88025-300",Florianópolis,SC,+55 48 99155-3017,5,5,-27.5752523,-48.538658999999996,,
88025408,1,Beira Mar Lanhes,,ChIJKSqMy3M5J5UR0HV88q3nweI,"Servidão Joel Jorge, 178 - Agronômica, Florianópolis - SC, 88025-408",Florianópolis,SC,+55 48 98833-9050,5,13,-27.5789215,-48.5333907,,
88025430,17,Tempero da Mel - Comida Caseira,,ChIJRfp0IVI5J5URuh6H4I1T_uU,"R. Trajano Margarida - Trindade, Florianópolis - SC, 88036-050",Florianópolis,SC,+55 48 99996-0927,3.7,6,-27.5815287,-48.525061099999995,,
88025547,6,Dog do Diego,,ChIJj52Pco85J5URoWjPUWG4nPY,"R. Delminda Silveira, 584 - Agronômica, Florianópolis - SC, 88025-500",Florianópolis,SC,+55 48 99839-4972,4.3,128,-27.5766314,-48.529918699999996,,
88030010,1,In Joy Floripa,https://instagram.com/injoyfloripa,ChIJxf96EWY5J5UR9hawtQfqD3s,"Rodovia João Paulo, 27 - João Paulo, Florianópolis - SC, 88030-300",Florianópolis,SC,+55 48 99944-0737,4.4,234,-27.5719924,-48.513233299999996,,
88030010,5,Uzumaki Sushi,,ChIJvYX81Yg4J5URMIn7Ik9dITU,"Rodovia João Paulo, 236 - João Paulo, Florianópolis - SC, 88030-300",Florianópolis,SC,+55 48 99660-6972,3.4,16,-27.5703805,-48.5138646,,
88030010,6,Sabor Caseiro,,ChIJpYQGmu04J5UR8QZeF8TrKeg,"Rod. Admar Gonzaga, 755 - Itacorubi, Florianópolis - SC, 88034-100",Florianópolis,SC,+55 48 99696-4763,4.7,139,-27.578337599999998,-48.507812099999995,,
88030010,7,Nachos Tex Mex,http://grannachos.com.br/cardapio,ChIJKaonrJg5J5URX0_H66ysQRg,"Rodovia João Paulo, 175 - João Paulo, Florianópolis - SC, 88030-300",Florianópolis,SC,+55 48 98824-8670,4.9,63,-27.570821,-48.5137961,,
88030010,8,Restaurante Universitário UDESC,,ChIJF3NB6OU4J5URC3exHybje-w,"Av. Me. Benvenuta, 2007 - Itacorubi, Florianópolis - SC, 88035-901",Florianópolis,SC,,4.1,360,-27.584918899999998,-48.504435199999996,,
88030010,9,MarsaladFresh,https://marsaladfresh.negocio.site/?utm_source=gmb&utm_medium=referral,ChIJi81fUT45J5URW43JaIc89GY,"R. Antônio Costa, 10 - Itacorubi, Florianópolis - SC, 88034-070",Florianópolis,SC,+55 48 98802-0296,5,1,-27.5802443,-48.5114557,,
88030010,10,Raffaello's Café e Grill,https://www.instagram.com/raffaelloscafeegrill/,ChIJzXJCwFk5J5UR7u9p4G1BCds,"R. Parque Tecnológico Alfa - Itacorubi, Florianópolis - SC, 88030-000",Florianópolis,SC,+55 48 3337-6934,4.6,71,-27.5704465,-48.5084176,,
88030010,12,Garapuvu Café & Bistrô,http://www.garapuvucafe.com.br/,ChIJNSrXjBs5J5URE--MGKpw3Ns,"Rod. Admar Gonzaga, 600 - Itacorubi, Florianópolis - SC, 88034-000",Florianópolis,SC,+55 48 3231-1720,4.4,585,-27.5784758,-48.509648999999996,,
88030010,14,Becool Itacorubi,https://www.cardapiodigital.io/becool.itacorubi,ChIJNYAhCGE5J5URqVJBX2_5M3A,"R. Prof. Ayrton Roberto de Oliveira, 64 - Loja 2 - Itacorubi, Florianópolis - SC, 88034-050",Florianópolis,SC,+55 48 98402-4659,4.4,39,-27.5789527,-48.510299599999996,,
88030010,15,Space Food - Itacorubi,,ChIJKTBmou44J5URqgjaxUTRpQ0,"Rod. Admar Gonzaga, 1054 - Itacorubi, Florianópolis - SC, 88034-000",Florianópolis,SC,,4.3,694,-27.5795566,-48.5049229,,
88030010,18,Forneria Catarina,http://www.forneriacatarina.com.br/,ChIJdzwLUPs4J5UR6AZh7M0JQVg,"Av. Me. Benvenuta, 1248 - Santa Monica, Florianópolis - SC, 88035-000",Florianópolis,SC,+55 48 3333-0707,4.7,3348,-27.5898984,-48.5092358,,
88030010,19,Restaurante Dubai - Comida Árabe,https://linktr.ee/restaurante.dubai,ChIJ7UFcdDI5J5URfykvxOQnGz4,"Av. Me. Benvenuta, 1129 - Santa Monica, Florianópolis - SC, 88035-000",Florianópolis,SC,+55 48 98833-8054,4.8,57,-27.589929599999998,-48.5103261,,
88030010,2,Feijoada Mineira - Delivery,https://feijoada-mineira-down-home-cooking-restaurant.negocio.site/?utm_source=gmb&utm_medium=referral,ChIJk73EynVBJ5URCJSxVi5jIXI,"Servidão Euclides Silva, 84 - Itacorubi, Florianópolis - SC, 88034-000",Florianópolis,SC,+55 48 98858-2118,4.5,60,-27.5771612,-48.5105259,,
88030010,3,Ferro Restaurante & Bar,http://www.instagram.com/ferro.sc,ChIJbwDdMPw5J5URtY0IiS6hPjo,"R. Jonas Alves Messina, 118 - Santa Monica, Florianópolis - SC, 88035-010",Florianópolis,SC,+55 48 98414-4382,4.6,892,-27.5902334,-48.513374999999996,,
88030010,7,Restaurante e pizzaria aguiar,,ChIJf1HYlyg5J5URl35k44G9VQQ,"R. Almiscar, 630 - Monte Verde, Florianópolis - SC, 88032-300",Florianópolis,SC,+55 48 98478-8290,4.2,24,-27.555979999999998,-48.4969195,,
88030010,8,Sushic Express,http://www.sushic.com.br/,ChIJASNF_PI4J5URWkklE7gUzHc,"SUSHIC EXPRESS - R. Prof. Ayrton Roberto de Oliveira, 64 - Itacorubi, Florianópolis - SC, 88034-050",Florianópolis,SC,+55 48 3733-4576,4.7,269,-27.578726699999997,-48.510446699999996,,
88030010,9,Maria Glacê Café e confeitaria - Techno Towers - Matriz,https://instagram.com/mariaglacecafe?igshid=MzRlODBiNWFlZA==,ChIJt3M29wo5J5URbjgJlFnEfa8,"Rod. José Carlos Daux, 500 - João Paulo, Florianópolis - SC, 88030-000",Florianópolis,SC,+55 48 99189-2793,3.8,5,-27.572125,-48.511416999999994,,
88030010,10,Restaurante Universitário - RU UFSC / CCA,,ChIJGXTTr8U5J5URUqZYl27wEhI,"Centro de Ciências Agrárias (CCA-UFSC, Aquicultura (CCA-UFSC) - Rod. Admar Gonzaga, 1346 - Itacorubi, Florianópolis - SC, 88034-000",Florianópolis,SC,,4.7,138,-27.5826972,-48.5043113,,
88030010,11,Souto Burger,,ChIJW2lax-44J5URAHEnk1HTSmk,"Rod. Admar Gonzaga, 1144 - Itacorubi, Florianópolis - SC, 88034-000",Florianópolis,SC,+55 48 99925-9244,3.3,38,-27.580314299999998,-48.504641,,
88030010,12,Spoleto,https://www.spoleto.com.br/tabs/cardapioapp,ChIJMyidRPk4J5URFdJNnSHJ4Yg,"Av. Me. Benvenuta, 687 - Santa Monica, Florianópolis - SC, 88034-102",Florianópolis,SC,+55 48 3238-7741,3.4,90,-27.589450199999998,-48.5156016,,
88030010,13,Sushinami - Itacorubi,https://www.sushinami.com.br/itacorubi,ChIJWa_Ymuc4J5URaucMYwW6fQA,"Rod. Amaro Antônio Viêira, 2122 - Itacorubi, Florianópolis - SC, 88034-101",Florianópolis,SC,+55 48 3233-6784,4.7,768,-27.5839264,-48.4993985,,
88030010,14,Escolha Biô,https://wa.me/c/554899124223,ChIJDVkVp-Q5J5URwgPayAyQfLA,"Rod. Admar Gonzaga, 755 - Itacorubi, Florianópolis - SC, 88034-000",Florianópolis,SC,+55 48 99912-4223,4.7,15,-27.578337899999998,-48.507613899999996,,
88030010,15,Restaurante Vó Chica,https://instagram.com/restaurantevo?igshid=cjhhxsxhw540,ChIJmU8T6l05J5URVhkfQR9mpf8,"Rod. Amaro Antônio Viêira, 2297 - Itacorubi, Florianópolis - SC, 88034-101",Florianópolis,SC,+55 48 99900-1169,4.4,95,-27.584647699999998,-48.4978268,,
88030010,16,Restaurante Bom Garfo,https://www.facebook.com/bomgarfofloripa,ChIJV-ew7lc4J5URZwElf9SMn2w,"R. Sérgio Lopes Falcão, 207 - Trindade, Florianópolis - SC, 88036-400",Florianópolis,SC,+55 48 3233-5398,4.4,367,-27.5900638,-48.519866099999994,,
88030010,17,Armazém Taviana,,ChIJLYb7Kok4J5URBdqn4gG5wDo,"Rodovia João Paulo, 224 - João Paulo, Florianópolis - SC, 88030-300",Florianópolis,SC,+55 48 3233-0822,4.5,995,-27.5704392,-48.5137493,,
88030010,3,Spedini trattoria expressa,http://www.spedini.com.br/,ChIJ9--aRPk4J5URqQ9zP9wDNxA,"Av. Me. Benvenuta, 687 - Santa Monica, Florianópolis - SC, 88035-000",Florianópolis,SC,+55 48 3239-8668,3.3,168,-27.589498,-48.5155846,,
88030010,4,Nokka Japanese - Santa Mônica,https://nokkajapanese.com.br/,ChIJSdErXPk4J5URU912ZKlbUVE,"R. Clodorico Moreira, 67 - Santa Monica, Florianópolis - SC, 88035-020",Florianópolis,SC,+55 48 99191-6796,4.4,2509,-27.5909765,-48.5138914,,
88030010,5,Lūdum,https://instagram.com/ludumcozinha?igshid=m17zfrnt73gh,ChIJRSg8hDJHJ5URXuIwzrlhGvU,"R. Joe Collaço, 286 - Córrego Grande, Florianópolis - SC, 88037-010",Florianópolis,SC,+55 48 99180-4440,4.5,201,-27.598257399999998,-48.5128426,,
88030010,6,Bar e Restaurante Estação Trindade,,ChIJB4Cod0A5J5UR8kUW6WUx4WQ,"R. Humberto de Campos, 88 - Trindade, Florianópolis - SC, 88036-420",Florianópolis,SC,,4.7,195,-27.589672999999998,-48.521184,,
88030010,7,Casa Sabor Restaurante,http://instagram.com/casasaborfloripa,ChIJe1mnAvE5J5UROLMZxs9RjBQ,"R. Cap. Pedro Bruno de Lima, 48 - Trindade, Florianópolis - SC, 88036-230",Florianópolis,SC,+55 48 99100-3921,5,41,-27.5874338,-48.5246254,,
88030010,8,Nakaixa Sushi,http://nakaixasushi.menudino.com/,ChIJeUBoc-Q4J5URsFBHnWOz-9E,"R. Maestro Vespasiano Souza, 101 - Santa Monica, Florianópolis - SC, 88035-410",Florianópolis,SC,+55 48 99801-1275,4.6,191,-27.588305199999997,-48.5048569,,
88030010,9,Texano Grill,,ChIJMyidRPk4J5URseJkC7-d0mQ,"Av. Me. Benvenuta, 687 - Santa Monica, Florianópolis - SC, 88035-000",Florianópolis,SC,+55 48 3222-3556,3,270,-27.5891709,-48.515339,,
88030010,11,Padaria & Restaurante Michele,,ChIJbew54Jg5J5URDvzLaPDGHng,"Rod. Admar Gonzaga, 1148 - Itacorubi, Florianópolis - SC, 88034-000",Florianópolis,SC,+55 48 99969-3897,4.7,38,-27.580378999999997,-48.5046653,,
88030010,12,LeBonTon Florianópolis,,ChIJWXVAn3o5J5URDJM6-8j26II,"Av. Me. Benvenuta, 687 - Santa Monica, Florianópolis - SC, 88035-000",Florianópolis,SC,,3.6,206,-27.589547399999997,-48.515548599999995,,
88030010,13,Restaurante João de Barro,https://restaurante-joao-de-barro-restaurant.negocio.site/,ChIJgYGp0XRHJ5URYbB5ouXkDQQ,"Estrada Haroldo Soares Glavan, 1166 - Cacupé, Florianópolis - SC, 88050-005",Florianópolis,SC,+55 48 99203-5293,4.7,873,-27.542054699999998,-48.5191206,,
88030010,15,Da Terra Restaurante Natural,http://restaurantedaterra.com.br/,ChIJuWOkdvw4J5UR-N4T2-gBss4,"R. Joe Collaço, 1034 - Santa Monica, Florianópolis - SC, 88035-200",Florianópolis,SC,+55 48 3025-2305,4.7,880,-27.5916693,-48.512127799999995,,
88030010,16,É Bom Restaurante,,ChIJibgNat84J5URk0eOe7ihCiU,"Rod. Amaro Antônio Viêira, 2931 - Itacorubi, Florianópolis - SC, 88034-102",Florianópolis,SC,+55 48 99661-3137,4.5,377,-27.5890606,-48.495003499999996,,
88030010,17,Zeppelin Restaurante,https://zeppelin-florianopolis.negocio.site/,ChIJ3Xa_nPs4J5URHDUP-UjGRuI,"Av. Me. Benvenuta, 1025 - Santa Monica, Florianópolis - SC, 88035-000",Florianópolis,SC,,4.6,894,-27.5905518,-48.5114278,,
88030010,18,Ichiro Sushi Bar,,ChIJp5B4hvs4J5URXOkiAFfB4ro,"Av. Me. Benvenuta, 968 - Santa Monica, Florianópolis - SC, 88035-000",Florianópolis,SC,+55 48 3028-0602,4.1,1332,-27.590990899999998,-48.511697399999996,,
88030010,19,Edu Restaurante,https://edu-restaurante.ola.click/products,ChIJU81719k5J5URS6g_l-rxkX0,"R. Lauro Linhares, 1070B - Trindade, Florianópolis - SC, 88036-001",Florianópolis,SC,+55 48 99857-2302,5,1,-27.588490399999998,-48.5232301,,
88030010,20,Bangkok Thai Cuisine - Restaurante Tailandes,https://www.ifood.com.br/delivery/florianopolis-sc/bangkok-thai-mercadoteca--saco-grande/688013b7-5810-4853-9890-63e67990882e,ChIJwWoznv5HJ5URtW6B5L-NiRI,"R. Lauro Linhares, 1619 - Trindade, Florianópolis - SC, 88036-644",Florianópolis,SC,+55 48 99978-7405,4.1,32,-27.5930933,-48.5210479,,
88030030,16,Hash Tag,,ChIJH-jz3I44J5UROGLS6iOKQ5I,"João Paulo, Florianópolis - SC, 88030-000",Florianópolis,SC,,,,-27.570386499999998,-48.5126856,,
88030030,19,Restaurante Splendido,https://linkr.bio/intercity.portofino,ChIJPwo0nqRHJ5URV954AqEADq8,"Rod. José Carlos Daux, 3270 - Saco Grande, Florianópolis - SC, 88032-005",Florianópolis,SC,+55 48 3112-5200,4.6,5,-27.5516856,-48.4986026,,
88030040,1,Floripa Burgers,,ChIJCZyhzNQ5J5UR0g7QRBIl94w,"SC-401, 715 - João Paulo, Florianópolis - SC, 88030-000",Florianópolis,SC,+55 48 98817-0013,4.4,64,-27.5704077,-48.5126838,,
88030040,9,Cantu Delivery,,ChIJvRa7d8Q5J5URmRngNs7ZPeM,"Rod. José Carlos Daux, 715 - João Paulo, Florianópolis - SC, 88030-000",Florianópolis,SC,+55 48 99962-1060,,,-27.570529999999998,-48.5126949,,
88030045,15,Di Taroni Trattoria,,ChIJMRfPE5Y3J5URZ0xflv04zuw,"R. Prof. Bento Águido Viêira, no 50 - Trindade, Florianópolis - SC, 88036-410",Florianópolis,SC,+55 48 3249-2040,4.6,727,-27.589579,-48.5217368,,
88030100,13,Ao Zeca,https://www.facebook.com/aozeca/,ChIJSfyR3_1HJ5UR0gl1-0UiS1M,"SC 401 número 4160 Passeio Primavera - Saco Grande, Florianópolis - SC, 88032-005",Florianópolis,SC,+55 48 99119-8881,4.5,430,-27.544645499999998,-48.50042,,
88030100,15,Griletto Floripa Shopping,http://www.griletto.com.br/,ChIJyejvHaA4J5UR-nLKAraf4SA,"Rod. Virgílio Várzea, 3116 - 262-A - Saco Grande, Florianópolis - SC, 88032-005",Florianópolis,SC,+55 19 3935-8984,2.8,88,-27.553627199999998,-48.498678899999994,,
88030300,2,Di bilica lanches,https://dibilicalanches.com.br/,ChIJGQUSE-45J5UR_6Wmqv7peZs,"Rodovia João Paulo, 1304 - João Paulo, Florianópolis - SC, 88030-300",Florianópolis,SC,+55 48 99623-1597,4.7,35,-27.561671,-48.516051999999995,,
88030300,4,Restaurante Zé do Cacupé,,ChIJO60qpp9HJ5UR8yXoFFrtHN8,"Estrada Haroldo Soares Glavan, 1964 - Cacupé, Florianópolis - SC, 88050-005",Florianópolis,SC,+55 48 3335-6229,4.6,2592,-27.541134,-48.526316,,
88030300,7,Coração Mineiro,http://www.coracaomineiro.com.br/,ChIJxdouH6A4J5URLDT2kLVZiD0,"Rod. Virgílio Várzea, 587 - Monte Verde, Florianópolis - SC, 88032-000",Florianópolis,SC,+55 11 2440-7405,3.5,304,-27.5538529,-48.4985304,,
88030300,9,Little Carbone,https://wa.me/4833715260,ChIJV9W3f805J5URyWPD6Vstay8,"SC-401, 3116 - Saco Grande, Florianópolis - SC, 88032-005",Florianópolis,SC,+55 48 3371-5260,4.4,441,-27.5535684,-48.4990929,,
88030300,10,Jardín Del Mar,http://www.instagram.com/jardindelmarfloripa/,ChIJGXDVfFBHJ5URhlyXvXKsc6c,"Estrada Haroldo Soares Glavan, 1760 - Cacupé, Florianópolis - SC, 88050-005",Florianópolis,SC,+55 48 99627-0188,4.4,140,-27.542431999999998,-48.5243737,,
88030300,11,Camarão Express,http://www.camaraoexpressoficial.com.br/,ChIJ6-jzHqA4J5URd2W6zhn1A5I,"Rod. José Carlos Daux, 3116 - Saco Grande, Florianópolis - SC, 88032-005",Florianópolis,SC,+55 48 3015-6276,4.2,370,-27.553701399999998,-48.4985442,,
88030300,13,Solar de Sintra,https://instagram.com/solardesintra?igshid=YmMyMTA2M2Y=,ChIJ4UbQgw1HJ5URnEcuSvq6fd0,"Edifício Campeche - Rod. José Carlos Daux, 5500 - loja 15 - Saco Grande, Florianópolis - SC, 88032-005",Florianópolis,SC,+55 48 4042-6242,4.8,409,-27.534613399999998,-48.5088247,,
88030300,15,DANKO - Gastronomia | Drinks | Eventos,https://www.instagram.com/danko.floripa/,ChIJvxWXQUxHJ5URpMBQMgn4m4U,"SC-401, 4100 - Saco Grande, Florianópolis - SC, 88032-005",Florianópolis,SC,+55 48 99161-0610,4.5,50,-27.5449454,-48.5003713,,
88030300,16,Vista Nipô,http://www.niposushi.com.br/,ChIJe6tsnmhHJ5UR8UB9fN2c4S4,"Rodovia Jose Carlos Daux (SC 401), n. 4150 Passeio Primavera - João Paulo, Florianópolis - SC, 88032-005",Florianópolis,SC,+55 48 3023-4445,4.7,701,-27.545359299999998,-48.5013483,,
88030300,17,Karabã,https://instagram.com/karaba.asf?igshid=104960cckz5h9,ChIJbe7LDE9BJ5URnE0kMVRa7DA,"Rod. SC 401, km 4 - Saco Grande, Florianópolis - SC, 88032-100",Florianópolis,SC,+55 48 3207-8002,4.5,58,-27.5448,-48.501070899999995,,
